,AcresBurned,ArchiveYear,CalFireIncident,Counties,CountyIds,Latitude,Longitude,MajorIncident,Name,PersonnelInvolved,Started
0,257314.0,2013,TRUE,Tuolumne,55,37.857,-120.086,FALSE,Rim Fire,,2013-08-17T15:25:00Z
1,30274.0,2013,TRUE,Los Angeles,19,34.585595,-118.423176,FALSE,Powerhouse Fire,,2013-05-30T15:28:00Z
2,27531.0,2013,TRUE,Riverside,33,33.7095,-116.72885,FALSE,Mountain Fire,,2013-07-15T13:43:00Z
3,27440.0,2013,FALSE,Placer,31,39.12,-120.65,FALSE,American Fire,,2013-08-10T16:30:00Z
4,24251.0,2013,TRUE,Ventura,56,0.0,0.0,TRUE,Springs Fire,2167.0,2013-05-02T07:01:00Z
5,22992.0,2013,FALSE,Fresno,10,37.279,-119.318,FALSE,Aspen Fire,,2013-07-22T22:15:00Z
6,20292.0,2013,TRUE,Riverside,33,33.86157,-116.90427,TRUE,Silver Fire,2106.0,2013-08-07T14:05:00Z
7,14754.0,2013,FALSE,Siskiyou,47,41.32,-123.176,FALSE,Salmon River Complex,,2013-07-31T22:00:00Z
8,12503.0,2013,FALSE,Humboldt,12,41.035,-123.488,FALSE,Corral Complex,,2013-08-10T11:40:00Z
9,11429.0,2013,TRUE,Tehama,52,40.042630000000000,-121.85397000000000,TRUE,Deer Fire,898.0,2013-08-23T14:15:00Z
10,8073.0,2013,TRUE,Shasta,45,40.498332,-122.535496,TRUE,Clover Fire,342.0,2013-09-09T12:32:00Z
11,7055.0,2013,TRUE,San Diego,37,32.95435,-116.47381000000000,TRUE,Chariot Fire,2147.0,2013-07-06T12:55:00Z
12,6965.0,2013,TRUE,Tehama,52,40.190062,-121.595555,TRUE,Panther Fire,1811.0,2013-05-01T09:12:00Z
13,4346.0,2013,TRUE,Kern,15,34.7861,-118.9411,TRUE,Grand Fire,847.0,2013-05-15T12:50:00Z
14,4346.0,2013,TRUE,Ventura,56,34.7861,-118.9411,TRUE,Grand Fire,847.0,2013-05-15T12:50:00Z
15,3505.0,2013,TRUE,Sonoma,49,38.8167,-122.8498,TRUE,McCabe Fire,188.0,2013-11-22T02:04:00Z
16,3166.0,2013,TRUE,Riverside,33,34.288877,-116.94131100000000,TRUE,Summit Fire,726.0,2013-05-01T12:38:00Z
17,3111.0,2013,TRUE,Contra Costa,7,37.90757,-121.88258200000000,TRUE,Morgan Fire,231.0,2013-09-08T13:08:00Z
18,2781.0,2013,TRUE,San Diego,37,33.121110000000000,-116.52579000000000,TRUE,San Felipe Fire,911.0,2013-05-23T12:20:00Z
19,2462.0,2013,TRUE,Butte,4,39.446268000000000,-121.38236,TRUE,Swedes Fire,1484.0,2013-08-16T16:37:00Z
20,2236.0,2013,FALSE,San Diego,37,33.341,-117.3092,FALSE,DeLuz Fire,,2013-10-05T12:45:00Z
21,2060.0,2013,FALSE,Tulare,54,36.208,-118.444,FALSE,Fish Fire,,2013-08-24T14:31:00Z
22,1984.0,2013,FALSE,Santa Barbara,42,34.55048,-119.82429000000000,FALSE,White Fire,,2013-05-27T14:45:00Z
23,1708.0,2013,TRUE,Mariposa,22,37.58202,-119.91071000000000,TRUE,Carstens Fire,112.0,2013-06-16T14:12:00Z
24,1383.0,2013,TRUE,Riverside,33,33.62236,-117.40288000000000,FALSE,Falls Fire,,2013-08-05T10:10:00Z
25,1271.0,2013,TRUE,San Diego,37,33.044580000000000,-116.5209,TRUE,General Fire,1217.0,2013-05-26T12:04:00Z
26,1070.0,2013,FALSE,Tuolumne,55,38.25108,-120.02778,FALSE,Power Fire,,2013-08-05T06:00:00Z
27,917.0,2013,FALSE,Monterey,27,0.0,0.0,FALSE,Pfeiffer Fire,,2013-12-16T00:20:00Z
28,794.0,2013,FALSE,Kern,15,35.707,-118.588,FALSE,Shirley Fire,,2013-08-18T23:12:00Z
29,712.0,2013,TRUE,Kern,15,34.882,-118.9194,TRUE,Rancho Fire,502.0,2013-07-19T12:00:00Z
30,712.0,2013,TRUE,Los Angeles,19,34.49149,-118.61004400000000,FALSE,Lake Fire,,2013-05-17T13:23:00Z
31,612.0,2013,TRUE,Kern,15,34.90327,-118.93388,FALSE,Water Fire,,2013-07-23T09:15:00Z
32,572.0,2013,FALSE,El Dorado,9,38.774,-120.29800000000000,FALSE,Kyburz Fire,,2013-07-08T12:45:00Z
33,534.0,2013,TRUE,San Bernardino,36,34.071556,-117.048397,TRUE,Mills Fire,282.0,2013-06-28T14:30:00Z
34,513.0,2013,FALSE,Plumas,32,40.00842,-120.76466600000000,FALSE,Plumas Lightning Complex (Hough),,2013-08-18T18:30:00Z
35,510.0,2013,TRUE,Riverside,33,33.894055,-116.855019,FALSE,Gorgonio Fire,,2013-05-04T11:43:00Z
36,502.0,2013,TRUE,Modoc,25,41.2415,-121.035,FALSE,Fox Fire (formally 3-7 Fire),,2013-07-03T22:56:00Z
37,500.0,2013,FALSE,San Luis Obispo,40,35.15832,-120.05131000000000,FALSE,Branch Fire,,2013-06-01T17:27:00Z
38,492.0,2013,TRUE,Contra Costa,7,37.96866,-121.91453,FALSE,Kirker Fire,,2013-07-01T13:19:00Z
39,482.0,2013,TRUE,Madera,20,37.015575,-119.78106000000000,TRUE,Rolling Fire,,2013-06-16T18:17:00Z
40,413.0,2013,FALSE,San Bernardino,36,34.302,-117.598,FALSE,Gobblers Fire,,2013-08-20T13:32:00Z
41,406.0,2013,TRUE,Inyo,14,36.602575,-118.01651000000000,TRUE,River Fire,476.0,2013-02-24T08:16:00Z
42,376.0,2013,TRUE,Napa,28,38.628,-122.289,TRUE,Putah Fire,4.0,2013-10-03T20:33:00Z
43,354.0,2013,TRUE,San Benito,35,37.160346000000000,-120.937494,FALSE,Tres Pinos Fire,,2013-05-03T11:42:00Z
44,311.0,2013,TRUE,Riverside,33,0.0,0.0,FALSE,Jurupa Fire,,2013-02-28T16:43:00Z
45,305.0,2013,TRUE,Butte,4,39.439,-121.49700000000000,TRUE,Summit Fire,259.0,2013-10-04T17:37:00Z
46,303.0,2013,TRUE,San Joaquin,39,38.049930000000000,-120.90325,FALSE,Shelton Fire,,2013-05-30T11:20:00Z
47,298.0,2013,TRUE,Butte,4,39.434183000000000,-121.57680400000000,TRUE,Lone Fire,,2013-06-03T13:49:00Z
48,296.0,2013,TRUE,Lake,17,0.0,0.0,FALSE,Becks Fire,,2013-01-22T11:08:00Z
49,274.0,2013,TRUE,Contra Costa,7,39.90465,-121.74367,FALSE,Concord Fire,,2013-07-01T15:41:00Z
50,274.0,2013,TRUE,Madera,20,37.116295,-119.63500400000000,FALSE,Gold Fire,,2013-04-30T12:59:00Z
51,268.0,2013,FALSE,Los Angeles,19,34.149,-117.90800000000000,FALSE,Madre Fire,,2013-09-23T18:00:00Z
52,263.0,2013,TRUE,San Diego,37,32.710918,-116.746023,TRUE,Lyon Fire,294.0,2013-09-09T13:09:00Z
53,243.0,2013,FALSE,San Bernardino,36,34.35,-117.62,FALSE,Sharp Fire,,2013-08-08T12:15:00Z
54,240.0,2013,TRUE,Alameda,1,37.775057000000000,-121.73721300000000,FALSE,Vasco Fire,,2013-06-08T10:16:00Z
55,237.0,2013,TRUE,Placer,31,38.729297000000000,-121.38086200000000,FALSE,PFE Fire,,2013-06-13T11:28:00Z
56,226.0,2013,FALSE,Glenn,11,0.0,0.0,FALSE,Daves Fire,,2013-06-12T15:17:00Z
57,217.0,2013,TRUE,Glenn,11,39.514139,-122.56086200000000,TRUE,306 Fire,221.0,2013-05-01T19:00:00Z
58,213.0,2013,FALSE,Monterey,27,0.0,0.0,FALSE,Tassajara Fire,,2013-07-17T13:23:00Z
59,200.0,2013,FALSE,San Bernardino,36,34.2,-117.417,FALSE,Sierra Fire,,2013-09-24T15:51:00Z
60,200.0,2013,TRUE,Tehama,52,40.012398,-122.079871,FALSE,Vina Fire,,2013-07-04T07:30:00Z
61,196.0,2013,TRUE,Shasta,45,40.5445,-121.3754,TRUE,Burney Lightning Series (Warner Fire),347.0,2013-08-19T17:48:00Z
62,195.0,2013,TRUE,Tehama,52,39.961309,-122.33087900000000,FALSE,Paskenta Fire,,2013-07-19T13:32:00Z
63,190.0,2013,TRUE,Napa,28,38.382,-122.311,TRUE,Silverado Fire,150.0,2013-11-21T21:39:00Z
64,170.0,2013,TRUE,Santa Barbara,42,34.611824,-120.074655,FALSE,Olive Fire,,2013-05-28T15:24:00Z
65,163.0,2013,TRUE,Yolo,57,38.67479,-122.08725,FALSE,Capay Fire,,2013-11-04T11:41:00Z
66,163.0,2013,TRUE,El Dorado,9,38.63987,-121.08438000000000,FALSE,50 Fire,,2013-07-19T14:12:00Z
67,163.0,2013,TRUE,Sacramento,34,38.63987,-121.08438000000000,FALSE,50 Fire,,2013-07-19T14:12:00Z
68,159.0,2013,TRUE,Sonoma,49,38.34599,-122.6503,FALSE,Crane Fire,,2013-10-04T12:25:00Z
69,158.0,2013,TRUE,Sonoma,49,38.17693,-122.51253,FALSE,Lakeville Fire,,2013-07-26T13:45:00Z
70,150.0,2013,TRUE,Alameda,1,0.0,0.0,FALSE,Highland Fire,,2013-10-04T07:35:00Z
71,150.0,2013,TRUE,Riverside,33,33.990128000000000,-117.164997,FALSE,Redlands Fire,,2013-07-16T17:48:00Z
72,150.0,2013,TRUE,Stanislaus,50,37.436,-121.1955,FALSE,Diablo Fire,,2013-07-12T15:35:00Z
73,150.0,2013,TRUE,Fresno,10,36.7218,-119.2248,FALSE,George Fire,,2013-06-25T13:36:00Z
74,150.0,2013,TRUE,Butte,4,0.0,0.0,TRUE,Neal Fire,60.0,2013-05-22T00:56:00Z
75,149.0,2013,TRUE,Los Angeles,19,34.419284000000000,-118.58688000000000,FALSE,Magic Fire,,2013-05-28T11:30:00Z
76,134.0,2013,FALSE,Tulare,54,36.258,-118.459,FALSE,Angora Fire,,2013-09-08T11:53:00Z
77,125.0,2013,TRUE,Sonoma,49,38.638828000000000,-122.655616,TRUE,Yellow Fire,249.0,2013-05-01T02:01:00Z
78,124.0,2013,TRUE,Solano,48,38.08744,-122.13802,FALSE,California Fire,,2013-06-18T15:18:00Z
79,124.0,2013,TRUE,Merced,24,37.03776,-121.00693900000000,FALSE,152 Fire,,2013-06-04T15:42:00Z
80,124.0,2013,TRUE,Riverside,33,33.963591,-117.18793400000000,FALSE,Smiley Fire,,2013-05-25T14:59:00Z
81,120.0,2013,TRUE,Lake,17,38.882214000000000,-122.567525,TRUE,Cantwell Fire,285.0,2013-11-08T13:42:00Z
82,116.0,2013,TRUE,El Dorado,9,38.682378,-120.839075,TRUE,Union Fire,,2013-08-16T13:55:00Z
83,110.0,2013,FALSE,San Bernardino,36,34.287,-117.45100000000000,FALSE,Cleghorn Fire,,2013-08-17T17:25:00Z
84,108.0,2013,TRUE,Fresno,10,36.772425,-119.62838900000000,FALSE,Clinton Fire,,2013-06-13T11:54:00Z
85,105.0,2013,TRUE,Monterey,27,36.1531,-120.8973,FALSE,Freeman Fire,,2013-06-29T14:09:00Z
86,100.0,2013,FALSE,Los Angeles,19,0.0,0.0,FALSE,Bee Fire,,2013-08-09T17:15:00Z
87,100.0,2013,TRUE,Tuolumne,55,37.91529,-120.33313000000000,FALSE,Murphy Fire,,2013-06-02T13:30:00Z
88,100.0,2013,TRUE,San Diego,37,32.564465000000000,-116.900368,FALSE,Border Fire,,2013-05-22T16:14:00Z
89,98.0,2013,TRUE,Mendocino,23,38.9252,-122.96600000000000,FALSE,Highland Fire,,2013-09-28T13:57:00Z
90,97.0,2013,FALSE,Modoc,25,41.73325,-120.375,FALSE,Davis Creek Complex,,2013-09-05T15:57:00Z
91,97.0,2013,FALSE,San Bernardino,36,33.642000000000000,-116.706,FALSE,Little Fire,,2013-08-24T15:09:00Z
92,97.0,2013,TRUE,Lassen,18,40.88886,-120.95812600000000,FALSE,Coyote Fire,,2013-08-09T15:51:00Z
93,96.0,2013,TRUE,Amador,3,38.27783,-120.966016,FALSE,Roadrunner Fire,,2013-06-12T16:43:00Z
94,94.0,2013,TRUE,San Luis Obispo,40,35.4393,-120.8358,FALSE,Creek Fire,,2013-09-24T03:20:00Z
95,92.0,2013,TRUE,Butte,4,39.6612,-121.50354000000000,TRUE,Branch Fire,80.0,2013-08-01T16:01:00Z
96,91.0,2013,TRUE,Madera,20,37.1927,-119.7917,TRUE,Lilly 2 Fire,,2013-05-19T15:07:00Z
97,90.0,2013,TRUE,Riverside,33,33.9582,-116.6534,FALSE,Water Fire,,2013-05-21T14:16:00Z
98,85.0,2013,TRUE,San Luis Obispo,40,35.62743,-120.83417,FALSE,Adelaida Fire,,2013-07-07T13:16:00Z
99,82.0,2013,TRUE,Mendocino,23,39.0442,-123.1478,FALSE,Retek Fire,,2013-11-22T10:06:00Z
100,80.0,2013,TRUE,Butte,4,39.731878,-121.71393800000000,TRUE,Centerville Fire,35.0,2013-08-31T17:23:00Z
101,80.0,2013,TRUE,Fresno,10,0.0,0.0,FALSE,Butte Fire,,2013-04-09T12:35:00Z
102,75.0,2013,TRUE,Tehama,52,0.0,0.0,FALSE,Tehama Fire,,2013-09-15T17:39:00Z
103,75.0,2013,TRUE,San Bernardino,36,34.316,-117.352,FALSE,Silverwood Fire,,2013-07-25T15:09:00Z
104,75.0,2013,TRUE,Madera,20,37.169379,-119.75636000000000,TRUE,Revis Fire,221.0,2013-06-12T16:40:00Z
105,75.0,2013,TRUE,San Bernardino,36,34.1834,-117.4408,TRUE,Lytle Fire,292.0,2013-05-13T13:30:00Z
106,75.0,2013,TRUE,Napa,28,38.441792,-122.350844,FALSE,Silverado Fire,,2013-04-30T23:44:00Z
107,73.0,2013,TRUE,San Bernardino,36,34.003151,-117.106075,FALSE,Liveoak Fire,,2013-09-11T16:57:00Z
108,73.0,2013,TRUE,Yuba,58,39.206000000000000,-121.31634,FALSE,McGanney Fire,,2013-07-08T09:59:00Z
109,72.0,2013,TRUE,Butte,4,0.0,0.0,TRUE,Cedar Fire,44.0,2013-05-01T04:16:00Z
110,70.0,2013,TRUE,Lake,17,39.013682,-122.49189400000000,TRUE,Double Fire,,2013-08-16T17:57:00Z
111,68.0,2013,FALSE,Modoc,25,41.569000000000000,-120.959,FALSE,Rail Fire,,2013-09-07T17:30:00Z
112,64.0,2013,TRUE,Ventura,56,34.384,-119.13249000000000,FALSE,Wheeler Fire,,2013-11-14T11:05:00Z
113,60.0,2013,FALSE,Riverside,33,38.838,-116.61,FALSE,Tram Fire,,2013-08-06T13:39:00Z
114,60.0,2013,TRUE,Riverside,33,33.910270000000000,-116.99895,FALSE,Relay Fire,,2013-08-04T16:29:00Z
115,52.0,2013,TRUE,Nevada,29,39.333401,-121.107022,FALSE,Tyler Fire,,2013-08-31T14:42:00Z
116,51.0,2013,TRUE,San Luis Obispo,40,35.457978000000000,-120.75155500000000,TRUE,Toro Fire,219.0,2013-11-08T10:30:00Z
117,50.0,2013,TRUE,Lake,17,39.0448,-122.7656,FALSE,Bruner Fire,,2013-11-23T12:04:00Z
118,50.0,2013,TRUE,Siskiyou,47,41.923323000000000,-122.57839300000000,FALSE,Cottonwood Fire,,2013-08-15T14:40:00Z
119,50.0,2013,TRUE,Santa Clara,43,37.1438,-121.7804,FALSE,Uvas Fire,,2013-07-12T13:09:00Z
120,50.0,2013,TRUE,Alameda,1,37.7393,-121.5869,FALSE,Grant Fire,,2013-07-04T10:00:00Z
121,50.0,2013,TRUE,San Luis Obispo,40,35.5123,-120.6368,FALSE,Homestead Fire,,2013-05-25T17:35:00Z
122,46.0,2013,TRUE,Calaveras,5,38.06231,-120.45233,TRUE,Bridges Fire,169.0,2013-08-17T10:11:00Z
123,46.0,2013,TRUE,Fresno,10,37.03087,-119.463757,FALSE,Sierra Fire,,2013-06-17T14:41:00Z
124,45.0,2013,TRUE,Mendocino,23,38.980846,-123.06767100000000,FALSE,Pratt Fire,,2013-07-23T13:29:00Z
125,44.0,2013,FALSE,Ventura,56,0.0,0.0,FALSE,Happy Camp Fire,,2013-12-10T02:26:00Z
126,43.0,2013,TRUE,Shasta,45,40.373000000000000,-122.7338,FALSE,Fiddler Fire,,2013-07-09T11:59:00Z
127,42.0,2013,TRUE,Riverside,33,33.969360000000000,-117.1265,FALSE,Viper Fire,,2013-06-08T15:37:00Z
128,41.0,2013,TRUE,San Mateo,41,37.667295,-122.42728500000000,FALSE,Chestnut Fire,,2013-09-07T13:55:00Z
129,40.0,2013,TRUE,Santa Clara,43,37.342186,-121.717706,FALSE,Grant Fire,,2013-12-31T05:30:00Z
130,40.0,2013,TRUE,Orange,30,33.7655,-117.6649,FALSE,Baker Fire,,2013-10-06T10:52:00Z
131,40.0,2013,TRUE,San Diego,37,0.0,0.0,FALSE,Valley Fire,,2013-09-26T17:29:00Z
132,40.0,2013,TRUE,Riverside,33,33.570291,-116.10815,FALSE,Pierce Fire,,2013-08-16T13:31:00Z
133,40.0,2013,TRUE,Siskiyou,47,0.0,0.0,FALSE,Trout Fire,,2013-07-31T15:25:00Z
134,40.0,2013,TRUE,Riverside,33,33.9634,-117.2508,FALSE,Heacock Fire,,2013-07-19T16:21:00Z
135,40.0,2013,TRUE,Riverside,33,34.001745,-117.302057,FALSE,Palmyrita Fire,,2013-06-14T13:47:00Z
136,40.0,2013,TRUE,Riverside,33,33.655638,-116.161201,TRUE,54 Fire,65.0,2013-05-16T13:48:00Z
137,38.0,2013,TRUE,El Dorado,9,38.89555,-120.84716,FALSE,Empire Fire,,2013-08-24T14:54:00Z
138,38.0,2013,TRUE,Lake,17,39.1591,-122.5906,FALSE,Indian Fire,,2013-08-07T12:35:00Z
139,38.0,2013,TRUE,Alameda,1,37.74241,-121.86216,FALSE,Fallon Fire,,2013-07-06T13:09:00Z
140,35.0,2013,TRUE,Fresno,10,36.763367000000000,-119.55824400000000,FALSE,Michelle Fire,,2013-06-13T15:54:00Z
141,35.0,2013,TRUE,San Luis Obispo,40,35.49864,-120.91375,FALSE,Cottontail Fire,,2013-05-20T15:45:00Z
142,34.0,2013,TRUE,Shasta,45,0.0,0.0,FALSE,Honey Fire,,2013-08-04T18:00:00Z
143,33.0,2013,TRUE,Shasta,45,40.483662,-122.140914,FALSE,Dersch Fire,,2013-11-07T16:10:00Z
144,31.0,2013,TRUE,Calaveras,5,37.965364,-120.69636200000000,FALSE,Chuckwagon Fire,,2013-07-22T12:34:00Z
145,30.0,2013,TRUE,Lake,17,38.9777,-122.68300000000000,TRUE,Lakeshore Fire,,2013-09-15T19:45:00Z
146,30.0,2013,TRUE,Lake,17,38.992330000000000,-122.703193,FALSE,Lake Fire,,2013-06-05T16:05:00Z
147,30.0,2013,FALSE,San Bernardino,36,34.288877,-116.94131100000000,FALSE,Fawnskin Fire,,2013-04-20T17:30:00Z
148,28.0,2013,TRUE,Sonoma,49,38.4229,-122.0437,TRUE,Sonoma-Lake-Napa Unit Lightning Fires,,2013-06-10T00:46:00Z
149,28.0,2013,TRUE,Solano,48,38.4229,-122.0437,TRUE,Sonoma-Lake-Napa Unit Lightning Fires,,2013-06-10T00:46:00Z
150,28.0,2013,TRUE,Lake,17,38.4229,-122.0437,TRUE,Sonoma-Lake-Napa Unit Lightning Fires,,2013-06-10T00:46:00Z
151,28.0,2013,TRUE,Colusa,6,38.4229,-122.0437,TRUE,Sonoma-Lake-Napa Unit Lightning Fires,,2013-06-10T00:46:00Z
152,27.0,2013,TRUE,Shasta,45,40.473356,-122.48259000000000,FALSE,Cloverdale Fire,,2013-08-14T15:37:00Z
153,25.0,2013,TRUE,San Diego,37,32.612773,-116.70733500000000,FALSE,Flume Fire,,2013-07-28T09:43:00Z
154,25.0,2013,TRUE,Lake,17,38.980580000000000,-122.81796000000000,FALSE,Mount Fire,,2013-06-20T14:29:00Z
155,25.0,2013,TRUE,Riverside,33,33.96201,-116.90721300000000,FALSE,Cherry Fire,,2013-05-20T13:47:00Z
156,23.0,2013,TRUE,Lake,17,38.9289,-122.5818,FALSE,Dam Fire,,2013-11-23T14:17:00Z
157,15.0,2013,TRUE,Mendocino,23,0.0,0.0,FALSE,Refuse Fire,,2013-12-30T11:00:00Z
158,15.0,2013,TRUE,Riverside,33,33.94528,-117.09306000000000,FALSE,Gilman Fire,,2013-07-19T17:31:00Z
159,15.0,2013,TRUE,Madera,20,0.0,0.0,FALSE,Ranger Fire,,2013-05-12T13:02:00Z
160,0.0,2013,FALSE,Humboldt,12,41.333,-123.376,FALSE,Orleans Complex,,2013-08-03T08:00:00Z
161,0.0,2013,FALSE,Riverside,33,33.99647,-116.84137,FALSE,Hathaway Fire,,2013-06-09T12:30:00Z
162,97717.0,2014,TRUE,El Dorado,9,38.805437,-120.62971400000000,TRUE,King Fire,,2014-09-13T16:32:00Z
163,50042.0,2014,FALSE,Siskiyou,47,0.0,0.0,FALSE,July Complex,,2014-08-02T09:00:00Z
164,39736.0,2014,TRUE,Shasta,45,40.901000000000000,-121.368,FALSE,Bald Fire,,2014-07-30T20:15:00Z
165,35302.0,2014,TRUE,Siskiyou,47,42.048,-122.345,FALSE,Oregon Gulch Fire (part of the Beaver Complex),,2014-07-30T23:00:00Z
166,32496.0,2014,FALSE,Siskiyou,47,0.0,0.0,FALSE,Beaver Fire,,2014-07-30T00:00:00Z
167,32416.0,2014,TRUE,Shasta,45,40.72,-121.56200000000000,TRUE,Eiler Fire,78.0,2014-07-31T18:04:00Z
168,14416.0,2014,FALSE,San Diego,37,0.0,0.0,FALSE,Pulgas Fire,,2014-05-15T14:45:00Z
169,13838.0,2014,FALSE,Madera,20,0.0,0.0,FALSE,French Fire,,2014-07-28T05:45:00Z
170,13153.0,2014,TRUE,Modoc,25,41.1336,-121.2144,TRUE,Day Fire,297.0,2014-07-30T19:01:00Z
171,12661.0,2014,TRUE,Shasta,45,40.4314,-122.75078800000000,TRUE,Bully Fire,,2014-07-11T15:37:00Z
172,12536.0,2014,TRUE,Mendocino,23,0.0,0.0,TRUE,Lodge Lightning Complex,,2014-07-30T06:27:00Z
173,6488.0,2014,TRUE,Yolo,57,38.512,-122.104,TRUE,Monticello Fire,87.0,2014-07-04T21:32:00Z
174,6258.0,2014,FALSE,Shasta,45,41.141000000000000,-122.805,FALSE,Coffee Fire,,2014-07-30T20:30:00Z
175,5503.0,2014,TRUE,Siskiyou,47,41.682000000000000,-122.12700000000000,FALSE,Little Deer Fire,,2014-07-31T17:45:00Z
176,5367.0,2014,FALSE,San Diego,37,33.3529,-117.28488900000000,TRUE,Tomahawk Fire,,2014-05-14T09:45:00Z
177,4840.0,2014,FALSE,Monterey,27,0.0,0.0,FALSE,Stoney Fire,,2014-06-19T15:14:00Z
178,4772.0,2014,FALSE,Mariposa,22,0.0,0.0,FALSE,Meadow Fire,,2014-08-16T00:00:00Z
179,4689.0,2014,FALSE,Mariposa,22,0.0,0.0,FALSE,El Portal Fire,,2014-07-26T17:00:00Z
180,4300.0,2014,TRUE,Napa,28,38.664,-122.454,TRUE,Butts Fire,0.0,2014-07-01T12:08:00Z
181,4300.0,2014,TRUE,Lake,17,38.664,-122.454,TRUE,Butts Fire,0.0,2014-07-01T12:08:00Z
182,4240.0,2014,TRUE,Amador,3,38.5691,-120.7819,TRUE,Sand Fire,40.0,2014-07-25T16:34:00Z
183,4240.0,2014,TRUE,El Dorado,9,38.5691,-120.7819,TRUE,Sand Fire,40.0,2014-07-25T16:34:00Z
184,4045.0,2014,FALSE,Kern,15,35.7206,-118.4747,FALSE,Way Fire,,2014-08-18T14:30:00Z
185,3895.0,2014,FALSE,Kern,15,35.70683,-118.555527,FALSE,Shirley Fire,,2014-06-13T17:00:00Z
186,2143.0,2014,TRUE,San Bernardino,36,34.169346000000000,-117.547374,TRUE,Etiwanda Fire,583.0,2014-04-30T08:00:00Z
187,1995.0,2014,TRUE,San Diego,37,33.1137,-117.1599,TRUE,Cocos Fire,514.0,2014-05-14T16:00:00Z
188,1952.0,2014,FALSE,Los Angeles,19,34.1703,-117.8816,FALSE,Colby Fire,,2014-01-16T05:50:00Z
189,1680.0,2014,FALSE,Kern,15,35.642000000000000,-118.15,FALSE,Nicolls Fire ,,2014-07-11T13:46:00Z
190,1651.0,2014,FALSE,Modoc,25,41.89,-120.79,FALSE,Modoc Lightning Complex,,2014-07-01T19:00:00Z
191,1548.0,2014,TRUE,San Diego,37,33.003,-117.133,TRUE,Bernardo Fire,211.0,2014-05-13T11:00:00Z
192,1469.0,2014,TRUE,Modoc,25,41.489,-120.904,TRUE,Gulch Fire,427.0,2014-07-03T15:46:00Z
193,1457.0,2014,FALSE,San Diego,37,33.417572,-117.55056700000000,FALSE,San Mateo Fire,,2014-05-16T11:24:00Z
194,1375.0,2014,TRUE,Shasta,45,40.7101,-122.171,TRUE,Gulch Fire,169.0,2014-09-10T00:30:00Z
195,1080.0,2014,FALSE,Mariposa,22,0.0,0.0,FALSE,Dark Hole Fire,,2014-07-17T01:00:00Z
196,968.0,2014,FALSE,Orange,30,33.748000000000000,-117.601,FALSE,Silverado Fire,,2014-09-12T10:30:00Z
197,865.0,2014,FALSE,Tehama,52,40.134597,-121.79018300000000,FALSE,Campbell Fire,,2014-01-02T20:00:00Z
198,677.0,2014,TRUE,Mariposa,22,0.0,0.0,TRUE,Hunters Fire,32.0,2014-05-26T15:33:00Z
199,632.0,2014,TRUE,Santa Barbara,42,34.609,-120.454,TRUE,Miguelito Fire,548.0,2014-05-13T14:00:00Z
200,612.0,2014,TRUE,Madera,20,37.3433,-119.6581,TRUE,Junction Fire,188.0,2014-08-18T13:50:00Z
201,600.0,2014,FALSE,San Diego,37,33.1109,-117.279,FALSE,Poinsettia Fire,,2014-05-14T10:30:00Z
202,580.0,2014,TRUE,Trinity,53,40.7412,-122.946,TRUE,Oregon Fire,46.0,2014-08-24T16:36:00Z
203,516.0,2014,TRUE,Siskiyou,47,41.423840000000000,-122.37432,TRUE,Boles Fire,453.0,2014-09-15T13:38:00Z
204,487.0,2014,TRUE,Tuolumne,55,37.76617,-120.45087,FALSE,59 Fire,,2014-06-04T11:45:00Z
205,459.0,2014,TRUE,Placer,31,0.0,0.0,TRUE,Applegate Fire,,2014-10-08T13:33:00Z
206,403.0,2014,TRUE,Mendocino,23,0.0,0.0,TRUE,Black Fire,15.0,2014-09-13T15:48:00Z
207,400.0,2014,TRUE,Monterey,27,36.6313,-121.4819,TRUE,Encinal Fire,,2014-03-19T16:45:00Z
208,389.0,2014,TRUE,Butte,4,0.0,0.0,TRUE,Web Fire,835.0,2014-07-28T13:11:00Z
209,380.0,2014,TRUE,San Diego,37,33.312,-117.162,TRUE,Highway Fire,,2014-05-14T13:00:00Z
210,350.0,2014,TRUE,Riverside,33,0.0,0.0,FALSE,Pierce Fire,,2014-03-15T16:37:00Z
211,333.0,2014,TRUE,Humboldt,12,40.884415000000000,-123.773779,FALSE,Red Fire,,2014-01-04T12:00:00Z
212,320.0,2014,TRUE,Madera,20,37.311915,-119.604124,TRUE,Courtney Fire,90.0,2014-09-14T13:36:00Z
213,311.0,2014,FALSE,Mariposa,22,37.0,40.34,FALSE,Dog Rock Fire,,2014-10-07T15:05:00Z
214,300.0,2014,TRUE,Mariposa,22,0.0,0.0,TRUE,Bridge Fire,,2014-09-05T12:39:00Z
215,300.0,2014,TRUE,Merced,24,0.0,0.0,FALSE,Gun Club Fire,,2014-07-24T12:06:00Z
216,274.0,2014,FALSE,Los Angeles,19,34.267000000000000,-117.867,FALSE,Tecolote Fire,,2014-08-17T14:30:00Z
217,269.0,2014,TRUE,Tuolumne,55,37.787,-120.45200000000000,FALSE,Hetch Hetchy Fire,,2014-06-05T13:04:00Z
218,247.0,2014,TRUE,Nevada,29,39.113682,-120.999508,TRUE,Dog Bar Fire,53.0,2014-09-13T14:07:00Z
219,225.0,2014,TRUE,Tehama,52,40.009827,-122.345078,FALSE,Tehama Fire,,2014-06-13T12:23:00Z
220,217.0,2014,TRUE,San Diego,37,33.078948,-116.576454,TRUE,Banner Fire,91.0,2014-07-03T10:43:00Z
221,210.0,2014,FALSE,Humboldt,12,41.13400000000000,-123.75300000000000,FALSE,Bald Hill 3 Fire,,2014-09-12T15:00:00Z
222,190.0,2014,FALSE,Los Angeles,19,34.235,-117.771,FALSE,Shoemaker Fire,,2014-08-14T12:48:00Z
223,175.0,2014,TRUE,Lake,17,39.1647,-122.5983,FALSE,Indian Fire,,2014-05-25T12:20:00Z
224,143.0,2014,TRUE,Shasta,45,40.6569,-122.2215,FALSE,Dry Fire,,2014-07-09T13:45:00Z
225,130.0,2014,TRUE,Mariposa,22,37.7103,-120.197,TRUE,Haigh Fire,10.0,2014-06-10T15:11:00Z
226,125.0,2014,TRUE,Santa Clara,43,0.0,0.0,FALSE,Curie Fire,,2014-06-30T14:10:00Z
227,125.0,2014,FALSE,San Diego,37,32.81,-116.49,FALSE,Gun Fire,,2014-03-08T12:30:00Z
228,120.0,2014,TRUE,Calaveras,5,120.679019,38.178241,FALSE,Reed Fire,,2014-06-20T15:27:00Z
229,120.0,2014,TRUE,Placer,31,0.0,0.0,FALSE,Brewer Fire,,2014-01-22T13:10:00Z
230,113.0,2014,TRUE,Inyo,14,37.399,-118.352,TRUE,Bridges Fire,256.0,2014-04-19T15:54:00Z
231,106.0,2014,TRUE,Fresno,10,36.8266,-119.3415,FALSE,Lake Fire,,2014-01-25T06:37:00Z
232,105.0,2014,FALSE,San Diego,37,0.0,0.0,FALSE,River Fire,,2014-05-14T12:12:00Z
233,101.0,2014,TRUE,Modoc,25,41.507,-121.266,FALSE,Little Fire,,2014-08-12T15:00:00Z
234,100.0,2014,TRUE,Lake,17,0.0,0.0,FALSE,Saratoga Fire,,2014-09-03T16:03:00Z
235,100.0,2014,TRUE,Riverside,33,0.0,0.0,FALSE,Interstate Fire,,2014-09-01T14:03:00Z
236,94.0,2014,FALSE,El Dorado,9,38.59,-120.02800000000000,FALSE,Irene Fire,,2014-09-14T09:15:00Z
237,90.0,2014,TRUE,Mariposa,22,0.0,0.0,TRUE,Valley Fire,356.0,2014-06-06T17:29:00Z
238,85.0,2014,TRUE,Calaveras,5,38.058,-120.66,TRUE,Oak Fire,,2014-06-22T12:37:00Z
239,84.0,2014,TRUE,Nevada,29,39.3918,-120.0805,FALSE,Boca Fire,,2014-08-18T10:00:00Z
240,80.0,2014,TRUE,Santa Clara,43,0.0,0.0,FALSE,Casa Fire,,2014-08-28T15:10:00Z
241,80.0,2014,TRUE,Contra Costa,7,37.5359,-121.5118,TRUE,Marsh Fire,,2014-07-11T21:57:00Z
242,79.0,2014,FALSE,Mariposa,22,0.0,0.0,FALSE,Montgomery Fire,,2014-09-07T16:46:00Z
243,78.0,2014,TRUE,Riverside,33,0.0,0.0,FALSE,Sabina Fire,,2014-07-23T10:47:00Z
244,75.0,2014,TRUE,Shasta,45,40.5719,-121.3415,TRUE,Cassel Fire,108.0,2014-07-05T18:44:00Z
245,75.0,2014,TRUE,Monterey,27,36.103,-121.117,FALSE,San Lucas Fire,,2014-04-30T14:25:00Z
246,72.0,2014,TRUE,Butte,4,39.4664,-121.6129,FALSE,Wildlife Fire,,2014-07-14T18:00:00Z
247,70.0,2014,TRUE,Tuolumne,55,37.8316,-120.3434,FALSE,Jackson Fire,,2014-09-04T11:51:00Z
248,70.0,2014,FALSE,Kern,15,0.0,0.0,FALSE,Ranch Fire,,2014-07-01T18:15:00Z
249,70.0,2014,TRUE,Solano,48,121.999,38.453,FALSE,Norman Fire,,2014-06-12T14:29:00Z
250,65.0,2014,FALSE,Inyo,14,0.0,0.0,FALSE,June Fire,,2014-09-16T19:07:00Z
251,62.0,2014,TRUE,Mendocino,23,0.0,0.0,TRUE,Nelson Fire,42.0,2014-09-21T16:13:00Z
252,60.0,2014,TRUE,Butte,4,0.0,0.0,FALSE,Honcut Fire,,2014-01-01T10:46:00Z
253,57.0,2014,TRUE,Riverside,33,33.5982,-116.1985,FALSE,Van Buren Fire,,2014-03-28T14:31:00Z
254,56.0,2014,TRUE,San Diego,37,0.0,0.0,FALSE,Freeway Fire ,,2014-05-14T17:43:00Z
255,50.0,2014,TRUE,Shasta,45,40.39,-122.721,FALSE,Fiddler Fire,,2014-05-14T14:00:00Z
256,48.0,2014,TRUE,San Bernardino,36,33.93869,-117.70643000000000,FALSE,Bane Fire,,2014-10-16T14:34:00Z
257,47.0,2014,TRUE,San Luis Obispo,40,35.8218,-121.0226,FALSE,Interlake Fire,,2014-07-07T16:12:00Z
258,40.0,2014,TRUE,Fresno,10,36.991825,-119.52550600000000,TRUE,Morgan Fire,,2014-06-09T15:15:00Z
259,38.0,2014,TRUE,Nevada,29,39.1871,-121.2687,FALSE,Hutto Fire,,2014-07-07T16:35:00Z
260,37.0,2014,TRUE,Humboldt,12,0.0,0.0,FALSE,McClellan Fire,,2014-08-01T15:47:00Z
261,37.0,2014,TRUE,Stanislaus,50,0.0,0.0,FALSE,Lake Fire,,2014-05-27T11:23:00Z
262,31.0,2014,TRUE,Riverside,33,0.0,0.0,TRUE,Bogart Fire,51.0,2014-06-06T17:32:00Z
263,30.0,2014,TRUE,Siskiyou,47,0.0,0.0,TRUE,Siskiyou County Lightning Fires,,2014-07-29T13:00:00Z
264,30.0,2014,TRUE,El Dorado,9,38.608336,-120.70323800000000,FALSE,Bible Fire,,2014-07-09T14:34:00Z
265,29.0,2014,TRUE,San Diego,37,32.665,-116.22200000000000,FALSE,Jacumba Fire,,2014-05-05T16:36:00Z
266,27.0,2014,TRUE,Napa,28,38.695961,-122.384054,FALSE,Stage Coach Fire,,2014-09-11T15:14:00Z
267,25.0,2014,TRUE,Ventura,56,0.0,0.0,FALSE,Foothill Fire ,,2014-09-29T19:35:00Z
268,25.0,2014,TRUE,Shasta,45,40.0,29.24,FALSE,Leopard Fire,,2014-08-29T12:21:00Z
269,25.0,2014,TRUE,Fresno,10,36.742747000000000,-119.24149300000000,FALSE,Hall Fire,,2014-06-11T07:30:00Z
270,20.0,2014,FALSE,El Dorado,9,38.9195001,-120.1140659,FALSE,Cascade Fire,,2014-09-25T18:00:00Z
271,20.0,2014,TRUE,San Diego,37,32.59154,-116.89516,FALSE,Border Fire,,2014-08-16T16:22:00Z
272,18.0,2014,TRUE,Humboldt,12,0.0,0.0,FALSE,Bridge Fire,,2014-01-03T10:30:00Z
273,15.0,2014,FALSE,Trinity,53,40.41,-123.24,FALSE,West Fire,,2014-07-01T03:45:00Z
274,14.0,2014,TRUE,Placer,31,0.0,0.0,FALSE,Iowa Fire,,2014-07-21T14:49:00Z
275,14.0,2014,TRUE,Riverside,33,0.0,0.0,FALSE,Santa Fire,,2014-06-04T15:18:00Z
276,10.0,2014,TRUE,Madera,20,37.0,18.4,FALSE,Pines Fire,,2014-08-26T16:23:00Z
277,6.0,2014,TRUE,Napa,28,0.0,0.0,FALSE,South Napa Earthquake,,2014-08-24T03:20:00Z
278,0.0,2014,FALSE,Siskiyou,47,41.79600000000000,-123.374,FALSE,Happy Camp Complex,,2014-08-11T22:00:00Z
279,151623.0,2015,FALSE,Fresno,10,36.874,-118.905,FALSE,Rough Fire ,,2015-07-31T19:00:00Z
280,77081.0,2015,FALSE,Trinity,53,0.0,0.0,FALSE,River Complex,,2015-07-30T22:30:00Z
281,69438.0,2015,TRUE,Lake,17,38.886353800000000,-122.47624750000000,TRUE,Rocky Fire,227.0,2015-07-29T15:29:00Z
282,36503.0,2015,FALSE,Trinity,53,0.0,0.0,FALSE,Fork Complex,,2015-07-30T21:30:00Z
283,31359.0,2015,TRUE,San Bernardino,36,34.160277777778,-116.89277777778,FALSE,Lake Fire,,2015-06-17T15:52:00Z
284,30361.0,2015,FALSE,Del Norte,8,0.0,0.0,FALSE,Gasquet Complex,,2015-07-31T21:00:00Z
285,29416.0,2015,FALSE,Trinity,53,0.0,0.0,FALSE,South Complex,,2015-07-30T16:00:00Z
286,25118.0,2015,TRUE,Lake,17,38.8142503,-122.48673190000000,TRUE,Jerusalem Fire,,2015-08-09T15:34:00Z
287,25118.0,2015,TRUE,Napa,28,38.8142503,-122.48673190000000,TRUE,Jerusalem Fire,,2015-08-09T15:34:00Z
288,10570.0,2015,FALSE,Lassen,18,40.938,-120.105,FALSE,Dodge Fire,,2015-08-03T14:15:00Z
289,7509.0,2015,FALSE,Del Norte,8,0.0,0.0,FALSE,Nickowitz Fire,,2015-08-01T23:23:00Z
290,7000.0,2015,TRUE,Inyo,14,0.0,0.0,TRUE,Round Fire,100.0,2015-02-06T14:07:00Z
291,7000.0,2015,TRUE,Mono,26,0.0,0.0,TRUE,Round Fire,100.0,2015-02-06T14:07:00Z
292,6980.0,2015,FALSE,Tulare,54,36.24,-118.54,FALSE,Cabin Fire,,2015-07-19T08:00:00Z
293,5702.0,2015,TRUE,Madera,20,37.279722,-119.50014000000000,FALSE,Willow Fire,,2015-07-25T14:30:00Z
294,4883.0,2015,TRUE,Humboldt,12,0.0,0.0,TRUE,Humboldt Lightning Fires,1392.0,2015-07-30T16:02:00Z
295,4863.0,2015,FALSE,Modoc,25,41.399000000000000,-121.39200000000000,FALSE,Frog Fire,,2015-07-30T17:45:00Z
296,4250.0,2015,TRUE,San Bernardino,36,34.339,-117.478,TRUE,North Fire,215.0,2015-07-17T14:33:00Z
297,3676.0,2015,FALSE,Mono,26,0.0,0.0,FALSE,Walker Fire,,2015-08-14T21:31:00Z
298,2700.0,2015,TRUE,Alameda,1,37.3845,-121.3732,TRUE,Tesla Fire,18.0,2015-08-19T14:45:00Z
299,2446.0,2015,TRUE,San Luis Obispo,40,35.3477,-120.6269,TRUE,Cuesta Fire,692.0,2015-08-16T18:13:00Z
300,2304.0,2015,TRUE,Nevada,29,39.192088,-120.88231300000000,TRUE,Lowell Fire,27.0,2015-07-25T14:37:00Z
301,1850.0,2015,FALSE,San Diego,37,0.0,0.0,FALSE,Horno Fire,,2015-08-13T13:03:00Z
302,1791.0,2015,TRUE,San Luis Obispo,40,0.0,0.0,TRUE,Park Hill Fire,15.0,2015-06-20T14:41:00Z
303,1542.0,2015,FALSE,Trinity,53,40.924,-123.16800000000000,FALSE,Saddle Fire ,,2015-06-10T15:00:00Z
304,1450.0,2015,TRUE,Merced,24,0.0,0.0,FALSE,Creek Fire,,2015-07-31T21:37:00Z
305,1333.0,2015,TRUE,Merced,24,0.0,0.0,TRUE,McCabe Fire,13.0,2015-07-18T22:27:00Z
306,1086.0,2015,TRUE,Monterey,27,36.3699644,-121.589554,TRUE,Tassajara Fire,55.0,2015-09-19T15:00:00Z
307,1049.0,2015,TRUE,Riverside,33,33.884313,-117.64275900000000,TRUE,Highway Fire,54.0,2015-04-18T18:12:00Z
308,1042.0,2015,TRUE,Butte,4,39.5218,-121.3363,TRUE,Lumpkin Fire,613.0,2015-09-11T14:15:00Z
309,920.0,2015,TRUE,Madera,20,37.165767000000000,-119.52394300000000,TRUE,Corrine Fire,43.0,2015-06-18T21:00:00Z
310,860.0,2015,TRUE,Butte,4,0.0,0.0,TRUE,Meridian Fire,102.0,2015-10-03T21:15:00Z
311,673.0,2015,TRUE,Lake,17,55.23,-122.0,TRUE,Elk Fire,270.0,2015-09-02T14:57:00Z
312,670.0,2015,TRUE,San Benito,35,36.70854,-121.32734000000000,TRUE,Cienega Fire,108.0,2015-10-12T16:00:00Z
313,543.0,2015,TRUE,Riverside,33,33.5736,-116.5387,FALSE,Anza Fire,,2015-08-10T11:44:00Z
314,509.0,2015,FALSE,Mono,26,0.0,0.0,FALSE,Van Dyke Fire,,2015-02-06T16:52:00Z
315,500.0,2015,FALSE,Madera,20,0.0,0.0,FALSE,Sky Fire,,2015-06-18T14:31:00Z
316,430.0,2015,TRUE,Tulare,54,36.085212,-118.82423500000000,TRUE,Triple Fire,,2015-07-21T12:35:00Z
317,415.0,2015,FALSE,Mariposa,22,0.0,0.0,FALSE,Tenaya Fire,,2015-09-07T21:23:00Z
318,415.0,2015,FALSE,Los Angeles,19,34.361007,-118.535793,FALSE,Calgrove Fire ,,2015-06-24T13:22:00Z
319,400.0,2015,TRUE,Butte,4,39.43963,-121.38794000000000,TRUE,Swedes Fire,8.0,2015-07-29T11:25:00Z
320,374.0,2015,FALSE,Los Angeles,19,0.0,0.0,FALSE,Lincoln Fire,,2015-08-16T13:30:00Z
321,355.0,2015,TRUE,Amador,3,0.0,0.0,TRUE,Ione Fire,,2015-07-02T01:58:00Z
322,300.0,2015,FALSE,Los Angeles,19,0.0,0.0,FALSE,Warm Fire,,2015-08-16T15:30:00Z
323,300.0,2015,TRUE,Alameda,1,0.0,0.0,FALSE,Site Fire,,2015-06-05T20:22:00Z
324,282.0,2015,FALSE,Ventura,56,0.0,0.0,FALSE,Chorro Fire,,2015-08-02T13:15:00Z
325,275.0,2015,TRUE,Merced,24,37.08312,-121.06963,FALSE,Forebay Fire,,2015-05-11T10:26:00Z
326,242.0,2015,TRUE,Alameda,1,0.0,0.0,FALSE,Christensen Fire,,2015-05-28T17:00:00Z
327,227.0,2015,FALSE,Mendocino,23,0.0,0.0,FALSE,Mendocino National Forest Lightning Complex,,2015-07-30T14:00:00Z
328,215.0,2015,TRUE,Santa Clara,43,0.0,0.0,FALSE,Pacheco Fire,,2015-09-09T15:58:00Z
329,215.0,2015,TRUE,Lake,17,38.925764,-122.879272,TRUE,Peterson Fire,,2015-08-22T17:30:00Z
330,214.0,2015,TRUE,Orange,30,33.7626,-117.7274,FALSE,241 Fire,,2015-07-13T10:47:00Z
331,212.0,2015,TRUE,Shasta,45,40.415108000000000,-122.439939,TRUE,China Fire,120.0,2015-07-29T17:55:00Z
332,211.0,2015,FALSE,Santa Barbara,42,0.0,0.0,FALSE,Mesa Fire,,2015-06-29T13:11:00Z
333,204.0,2015,TRUE,Tuolumne,55,37.823,-120.15644000000000,TRUE,Big Creek Fire,115.0,2015-07-29T16:30:00Z
334,200.0,2015,FALSE,Los Angeles,19,34.367,-117.68300000000000,FALSE,Pines Fire ,,2015-07-17T21:30:00Z
335,200.0,2015,FALSE,Siskiyou,47,41.485,-121.851,FALSE,Stephens Fire,,2015-02-24T12:15:00Z
336,195.0,2015,TRUE,Contra Costa,7,37.81629,-121.68113000000000,FALSE,Vasco Fire,,2015-07-30T11:18:00Z
337,186.0,2015,FALSE,Ventura,56,0.0,0.0,FALSE,Rustic Fire,,2015-08-14T15:22:00Z
338,181.0,2015,TRUE,Siskiyou,47,41.8048,-122.5029,FALSE,Cooley Fire,,2015-07-13T17:56:00Z
339,171.0,2015,TRUE,San Diego,37,32.9421,-116.8534,FALSE,Wildcat Fire,,2015-06-17T17:03:00Z
340,170.0,2015,TRUE,Fresno,10,40.400196,-120.553075,FALSE,Creek Fire,,2015-09-09T14:30:00Z
341,170.0,2015,TRUE,Tehama,52,39.8448,-122.3638,FALSE,Black Fire,,2015-07-04T16:33:00Z
342,167.0,2015,TRUE,Kern,15,0.0,0.0,FALSE,Flat Fire ,,2015-08-20T15:57:00Z
343,167.0,2015,FALSE,San Diego,37,33.383889,-116.86861100000000,FALSE,Cutca Fire,,2015-07-24T16:18:00Z
344,164.0,2015,FALSE,Ventura,56,0.0,0.0,FALSE,River Fire,,2015-06-22T07:00:00Z
345,158.0,2015,TRUE,Humboldt,12,41.295667,-123.784067,TRUE,Queen Fire,57.0,2015-07-24T23:00:00Z
346,158.0,2015,TRUE,Yuba,58,39.2688,-121.26471000000000,TRUE,Cook Fire,250.0,2015-06-18T13:07:00Z
347,150.0,2015,TRUE,Solano,48,38.4113,-122.0789,TRUE,Sky Fire,275.0,2015-07-06T10:47:00Z
348,150.0,2015,TRUE,Riverside,33,0.0,0.0,FALSE,Merwin Fire,,2015-07-01T20:38:00Z
349,146.0,2015,TRUE,Humboldt,12,40.1058823,-124.0720419,TRUE,Horse Fire,45.0,2015-08-18T18:30:00Z
350,137.0,2015,TRUE,Plumas,32,40.050833333333,-120.70166666667,FALSE,Ward Fire,,2015-04-13T05:30:00Z
351,135.0,2015,TRUE,Madera,20,37.072561,-119.6958,FALSE,Red Fire,,2015-06-21T12:08:00Z
352,128.0,2015,TRUE,Trinity,53,40.724898000000000,-122.96174000000000,TRUE,Democrat Fire,,2015-08-25T14:08:00Z
353,122.0,2015,TRUE,San Joaquin,39,0.0,0.0,FALSE,Collier Fire,,2015-06-18T14:09:00Z
354,116.0,2015,TRUE,Modoc,25,41.29226,-121.17211700000000,FALSE,3-11 Fire,,2015-07-23T16:40:00Z
355,114.0,2015,TRUE,Calaveras,5,38.052,-120.5577,TRUE,Mark Fire,20.0,2015-08-13T16:15:00Z
356,112.0,2015,TRUE,Tuolumne,55,37.83618,-120.61691,FALSE,Tulloch Fire,,2015-08-15T16:11:00Z
357,111.0,2015,FALSE,Lassen,18,0.0,0.0,FALSE,Shinn Fire,,2015-06-30T18:00:00Z
358,110.0,2015,TRUE,Sacramento,34,0.0,0.0,TRUE,Apple Fire,,2015-09-03T12:12:00Z
359,110.0,2015,TRUE,Tehama,52,40.3506868,-121.77867990000000,TRUE,36 Fire,,2015-08-08T14:55:00Z
360,110.0,2015,TRUE,Placer,31,0.0,0.0,TRUE,Riosa Fire,,2015-06-08T10:33:00Z
361,109.0,2015,TRUE,Shasta,45,40.475120000000000,-122.52541000000000,TRUE,Walker Fire,45.0,2015-09-11T15:08:00Z
362,108.0,2015,TRUE,Tuolumne,55,38.04684,-120.30188000000000,TRUE,Oak Fire,59.0,2015-09-08T13:23:00Z
363,104.0,2015,TRUE,Butte,4,39.8707,-121.8938,FALSE,Munjar Fire,,2015-10-02T14:38:00Z
364,100.0,2015,FALSE,San Bernardino,36,34.165974,-117.24387800000000,FALSE,Sterling Fire,,2015-06-25T18:30:00Z
365,95.0,2015,TRUE,Monterey,27,36.5696373,-121.75560290000000,FALSE,Laureles Fire,,2015-09-19T15:25:00Z
366,95.0,2015,TRUE,San Luis Obispo,40,35.7183,-121.0157,TRUE,Deer Fire,379.0,2015-07-10T12:41:00Z
367,90.0,2015,TRUE,Shasta,45,40.49865,-122.20109,FALSE,Sprig Fire,,2015-07-30T12:57:00Z
368,86.0,2015,TRUE,Tulare,54,36.49845,-118.9009,TRUE,Advance Fire,150.0,2015-07-30T12:40:00Z
369,80.0,2015,TRUE,San Diego,37,32.6449163,-116.94543870000000,FALSE,Otay Fire,,2015-06-26T16:06:00Z
370,80.0,2015,TRUE,Riverside,33,0.0,0.0,FALSE,Harrison Fire,,2015-06-01T10:16:00Z
371,77.0,2015,TRUE,Modoc,25,40.856422000000000,-121.101623,FALSE,3-12 Fire,,2015-07-23T17:30:00Z
372,75.0,2015,TRUE,Shasta,45,40.67868,-121.93244000000000,TRUE,Fern Fire,,2015-08-02T03:00:00Z
373,75.0,2015,TRUE,Shasta,45,40.509552,-122.19922700000000,TRUE,Mallard Fire,40.0,2015-07-29T16:30:00Z
374,75.0,2015,FALSE,El Dorado,9,38.776000000000000,-120.404,FALSE,Kyburz Fire,,2015-07-23T14:00:00Z
375,75.0,2015,TRUE,Butte,4,0.0,0.0,FALSE,Webb Fire,,2015-07-01T13:05:00Z
376,72.0,2015,TRUE,Butte,4,26.42,-121.0,TRUE,Olive Fire,190.0,2015-09-02T13:18:00Z
377,69.0,2015,FALSE,Siskiyou,47,0.0,0.0,FALSE,Prairie Fire,,2015-08-20T16:00:00Z
378,67.0,2015,TRUE,Kern,15,35.77937,-120.19482000000000,FALSE,Pass Fire,,2015-06-15T15:46:00Z
379,65.0,2015,FALSE,San Bernardino,36,0.0,0.0,FALSE,Scales Fire,,2015-08-01T13:04:00Z
380,60.0,2015,TRUE,Fresno,10,0.0,0.0,FALSE,Kerkhoff Fire,,2015-07-18T16:31:00Z
381,60.0,2015,TRUE,Lassen,18,40.875667,-121.033667,FALSE,Dixie Fire,,2015-06-19T16:15:00Z
382,60.0,2015,TRUE,Riverside,33,0.0,0.0,FALSE,Grapefruit Fire,,2015-06-18T14:16:00Z
383,60.0,2015,TRUE,Mariposa,22,0.0,0.0,TRUE,Triangle Fire,,2015-06-18T12:03:00Z
384,60.0,2015,TRUE,Amador,3,38.260777000000000,-121.135426,FALSE,North Fire,,2015-06-16T16:42:00Z
385,59.0,2015,TRUE,Shasta,45,40.3929,-122.40546,TRUE,Point Fire,,2015-08-03T14:28:00Z
386,58.0,2015,FALSE,Siskiyou,47,0.0,0.0,FALSE,Military Fire,,2015-10-10T12:00:00Z
387,55.0,2015,FALSE,San Bernardino,36,34.23,-116.883,FALSE,Summit Fire,,2015-08-23T12:25:00Z
388,55.0,2015,TRUE,San Diego,37,33.4115972,-117.2886249,FALSE,De Luz Fire,,2015-08-09T08:22:00Z
389,55.0,2015,TRUE,Tehama,52,40.0133,-122.552,FALSE,Fork Fire,,2015-06-17T12:50:00Z
390,54.0,2015,TRUE,San Bernardino,36,34.0783472,-117.04878630000000,TRUE,Mill 2 Fire,,2015-07-12T14:46:00Z
391,53.0,2015,TRUE,Alameda,1,0.0,0.0,FALSE,Tesla Fire,,2015-06-25T16:10:00Z
392,52.0,2015,TRUE,Santa Barbara,42,34.9522,-120.2903,FALSE,White Fire,,2015-08-01T14:32:00Z
393,50.0,2015,FALSE,Ventura,56,34.15,-118.87944400000000,FALSE,Potrero Fire,,2015-11-07T01:45:00Z
394,50.0,2015,TRUE,Mendocino,23,39.433010000000000,-123.36316000000000,FALSE,Mendocino Lightning Fires,,2015-07-30T13:36:00Z
395,45.0,2015,TRUE,Kern,15,0.0,0.0,FALSE,Antelope Fire,,2015-09-09T11:45:00Z
396,45.0,2015,TRUE,Alameda,1,0.0,0.0,FALSE,Geary Fire,,2015-07-02T04:40:00Z
397,45.0,2015,TRUE,Fresno,10,0.0,0.0,FALSE,FKU Lightning Fires,,2015-06-05T17:00:00Z
398,43.0,2015,FALSE,Modoc,25,0.0,0.0,FALSE,Mason Fire ,,2015-07-09T15:00:00Z
399,42.0,2015,TRUE,Santa Clara,43,0.0,0.0,FALSE,Highway Fire,,2015-06-30T15:23:00Z
400,40.0,2015,TRUE,Lassen,18,40.400196,-120.553075,FALSE,Center Fire,,2015-09-09T14:12:00Z
401,40.0,2015,TRUE,Stanislaus,50,37.24523,-121.20324,FALSE,Sullivan Fire,,2015-07-28T12:10:00Z
402,40.0,2015,TRUE,Solano,48,38.1029,-122.1578,TRUE,Ascot Fire,70.0,2015-07-10T13:36:00Z
403,38.0,2015,TRUE,Napa,28,38.5287,-122.3415,TRUE,Chiles Fire,120.0,2015-06-16T14:27:00Z
404,36.0,2015,TRUE,Napa,28,0.0,0.0,TRUE,Garage Fire,103.0,2015-06-09T15:23:00Z
405,35.0,2015,TRUE,Trinity,53,40.0,41.46,FALSE,Browns Fire,,2015-09-08T15:56:00Z
406,35.0,2015,TRUE,El Dorado,9,0.0,0.0,FALSE,Ranch Fire,,2015-07-03T09:28:00Z
407,35.0,2015,TRUE,Mendocino,23,39.7806004,-123.24821400000000,FALSE,Covelo Fire,,2015-06-28T13:30:00Z
408,30.0,2015,TRUE,Nevada,29,39.081000000000000,-121.194,FALSE,McCourtney Fire,,2015-09-22T07:00:00Z
409,30.0,2015,TRUE,Lassen,18,41.12362,-121.19425600000000,FALSE,Kramer Fire ,,2015-08-29T16:06:00Z
410,30.0,2015,TRUE,Yuba,58,39.33303,-121.18735,FALSE,Francis Fire,,2015-08-03T18:07:00Z
411,29.0,2015,FALSE,Ventura,56,0.0,0.0,FALSE,Banister Fire,,2015-11-11T17:40:00Z
412,26.0,2015,TRUE,Placer,31,38.9361,-121.1548,FALSE,Baxter Fire,,2015-07-22T18:17:00Z
413,25.0,2015,TRUE,San Diego,37,32.682547,-116.51684000000000,FALSE,Park Fire,,2015-07-24T12:43:00Z
414,25.0,2015,TRUE,San Benito,35,36.8727,-121.5681,FALSE,Betabel Fire,,2015-07-20T13:23:00Z
415,25.0,2015,TRUE,San Diego,37,33.21407,-116.73472,FALSE,Lake Fire,,2015-07-16T11:30:00Z
416,25.0,2015,TRUE,El Dorado,9,0.0,0.0,FALSE,Buckaroo Fire,,2015-07-02T17:10:00Z
417,25.0,2015,TRUE,Mariposa,22,0.0,0.0,TRUE,Fox Fire,60.0,2015-06-07T12:06:00Z
418,25.0,2015,TRUE,Lake,17,0.0,0.0,FALSE,Oasis Fire,,2015-06-05T19:57:00Z
419,25.0,2015,TRUE,Riverside,33,0.0,0.0,FALSE,Snow Fire,,2015-06-05T13:32:00Z
420,24.0,2015,TRUE,Siskiyou,47,41.999341000000000,-121.891226,TRUE,Dorris Fire,49.0,2015-07-21T17:00:00Z
421,23.0,2015,TRUE,Mendocino,23,39.0263,-123.303,FALSE,Soda Fire,,2015-07-04T15:30:00Z
422,22.0,2015,TRUE,Lake,17,38.831478000000000,-122.53428000000000,FALSE,Grade Fire,,2015-08-24T12:12:00Z
423,21.0,2015,FALSE,Santa Barbara,42,34.4828,-119.63216000000000,FALSE,Gibraltar Fire,,2015-10-29T05:30:00Z
424,21.0,2015,TRUE,Riverside,33,33.986204,-117.43942,TRUE,Spider Fire,,2015-07-12T13:52:00Z
425,20.0,2015,TRUE,Humboldt,12,41.1513,-123.8292,TRUE,Bald Fire,195.0,2015-06-10T07:42:00Z
426,19.0,2015,TRUE,Napa,28,38.519132,-122.181878,FALSE,Pleasure Fire,,2015-06-27T12:51:00Z
427,18.0,2015,TRUE,Shasta,45,40.5953,-122.4397,TRUE,Keswick Fire,,2015-07-07T12:34:00Z
428,16.0,2015,TRUE,Humboldt,12,40.1093,-123.774,FALSE,Buck Fire,,2015-07-28T17:19:00Z
429,0.0,2015,FALSE,Trinity,53,0.0,0.0,FALSE,Mad River Complex,,2015-07-30T16:00:00Z
430,0.0,2015,FALSE,Alpine,2,38.598056,-119.751944,FALSE,Washington Fire,,2015-06-19T19:00:00Z
431,132127.0,2016,TRUE,Monterey,27,36.45994,-121.89938000000000,TRUE,Soberanes Fire,,2016-07-22T08:48:00Z
432,48019.0,2016,TRUE,Kern,15,35.6115,-118.45628,FALSE,Erskine Fire,,2016-06-23T15:51:00Z
433,46344.0,2016,TRUE,San Luis Obispo,40,35.70595,-120.98316000000000,TRUE,Chimney Fire,,2016-08-13T16:03:00Z
434,36274.0,2016,TRUE,San Bernardino,36,34.30372,-117.49342,TRUE,Blue Cut Fire,914.0,2016-08-16T10:44:00Z
435,33867.0,2016,FALSE,Siskiyou,47,41.851000000000000,-123.118,FALSE,Gap Fire,,2016-08-27T18:00:00Z
436,32606.0,2016,TRUE,Santa Barbara,42,0.0,0.0,FALSE,Rey Fire ,,2016-08-18T17:57:00Z
437,29322.0,2016,FALSE,Kern,15,35.7506,-118.5678,FALSE,Cedar Fire,,2016-08-16T16:35:00Z
438,12518.0,2016,FALSE,Santa Barbara,42,34.63445,-120.54421,FALSE,Canyon Fire,,2016-09-17T17:20:00Z
439,8110.0,2016,TRUE,San Bernardino,36,34.28771,-117.27338,TRUE,Pilot Fire,960.0,2016-08-07T12:18:00Z
440,7609.0,2016,TRUE,San Diego,37,32.60729,-116.63028,TRUE,Border Fire,78.0,2016-06-19T11:03:00Z
441,7474.0,2016,TRUE,Santa Barbara,42,34.776000000000000,-119.64300000000000,TRUE,Sherpa Fire,,2016-06-15T15:21:00Z
442,7050.0,2016,TRUE,Fresno,10,36.099740000000000,-120.51057,TRUE,Mineral Fire,20.0,2016-08-09T13:08:00Z
443,5731.0,2016,TRUE,Yolo,57,38.52513,-122.06788,TRUE,Cold Fire,58.0,2016-08-02T16:36:00Z
444,5646.0,2016,TRUE,El Dorado,9,38.96741,-120.9375,TRUE,Trailhead Fire,,2016-06-28T13:55:00Z
445,5646.0,2016,TRUE,Placer,31,38.96741,-120.9375,TRUE,Trailhead Fire,,2016-06-28T13:55:00Z
446,5443.0,2016,FALSE,Inyo,14,37.75985,-118.95309000000000,FALSE,Owens River Fire,,2016-09-17T13:49:00Z
447,5399.0,2016,FALSE,Los Angeles,19,0.0,0.0,FALSE,San Gabriel Complex (Formerly Fish & Reservoir Fires),,2016-06-20T13:59:00Z
448,4824.0,2016,FALSE,Los Angeles,19,34.31,-118.335,FALSE,Marek Fire,,2016-11-14T05:45:00Z
449,4474.0,2016,TRUE,Santa Clara,43,37.106320000000000,-121.85318000000000,TRUE,Loma Fire,62.0,2016-09-26T14:42:00Z
450,4347.0,2016,FALSE,Tulare,54,35.984,-118.551,FALSE,Meadow Fire,,2016-10-29T11:15:00Z
451,3929.0,2016,TRUE,Lake,17,38.89741,-122.60664000000000,TRUE,Clayton Fire,32.0,2016-08-13T18:03:00Z
452,3876.0,2016,TRUE,Monterey,27,36.38123,-121.20059000000000,TRUE,Metz Fire,22.0,2016-05-22T15:27:00Z
453,3712.0,2016,TRUE,San Luis Obispo,40,0.0,0.0,FALSE,Roberts Fire,,2016-05-18T14:27:00Z
454,2944.0,2016,TRUE,Fresno,10,36.0749,-120.452041,TRUE,Curry Fire,188.0,2016-07-01T17:16:00Z
455,2860.0,2016,FALSE,Siskiyou,47,41.623000000000000,-123.557,FALSE,Pony Fire,,2016-06-07T02:45:00Z
456,2819.0,2016,FALSE,Mono,26,0.0,0.0,FALSE,Clark Fire,,2016-08-04T14:09:00Z
457,2652.0,2016,FALSE,Modoc,25,41.2649,-120.3178,FALSE,Soup Complex,,2016-09-17T14:37:00Z
458,2575.0,2016,TRUE,Lassen,18,40.3915,-120.7845,TRUE,Willard Fire,78.0,2016-09-11T11:33:00Z
459,2520.0,2016,TRUE,Monterey,27,36.01542,-121.25029000000000,FALSE,Coleman Fire,,2016-06-04T14:33:00Z
460,2304.0,2016,FALSE,Ventura,56,34.701,-119.14400000000000,FALSE,Pine Fire,,2016-06-30T16:55:00Z
461,2241.0,2016,TRUE,Fresno,10,37.01591,-119.50507000000000,TRUE,Goose Fire,167.0,2016-07-30T16:40:00Z
462,2100.0,2016,FALSE,Fresno,10,36.94536,-119.25959000000000,FALSE,Sacata Fire,,2016-10-11T12:58:00Z
463,1785.0,2016,TRUE,Kern,15,35.20993,-118.72272,TRUE,Deer Fire,,2016-07-01T14:05:00Z
464,1547.0,2016,TRUE,Sonoma,49,38.80017,-122.82895,TRUE,Sawmill Fire,14.0,2016-09-25T10:43:00Z
465,1470.0,2016,TRUE,Riverside,33,0.0,0.0,TRUE,Bogart Fire,,2016-08-30T12:25:00Z
466,1246.0,2016,TRUE,Merced,24,37.07147,-121.20155,FALSE,Dinosaur Fire,,2016-06-25T23:45:00Z
467,1245.0,2016,FALSE,San Diego,37,33.393,-117.35093,FALSE,Roblar Fire,,2016-07-21T16:06:00Z
468,1109.0,2016,FALSE,Los Angeles,19,34.36763,-118.57245,FALSE,Sage Fire,,2016-07-09T12:04:00Z
469,1080.0,2016,TRUE,Tuolumne,55,37.79635,-120.32484,TRUE,Marshes Fire,92.0,2016-09-26T12:20:00Z
470,850.0,2016,TRUE,Butte,4,39.6871,-121.571,TRUE,Saddle Fire,133.0,2016-09-05T16:28:00Z
471,710.0,2016,TRUE,Siskiyou,47,41.7813,-122.611,TRUE,Grade Fire,,2016-08-24T14:55:00Z
472,650.0,2016,FALSE,Mono,26,37.97,-119.14,FALSE,Marina Fire,,2016-06-25T06:30:00Z
473,599.0,2016,TRUE,Humboldt,12,41.284860000000000,-123.82268,TRUE,Tully Fire,174.0,2016-08-22T16:03:00Z
474,554.0,2016,TRUE,Kern,15,34.913000000000000,118.9082,FALSE,Fort Fire,,2016-07-08T11:15:00Z
475,550.0,2016,TRUE,Butte,4,39.6708,-121.7192,FALSE,99 Fire,,2016-08-02T14:35:00Z
476,518.0,2016,TRUE,Kern,15,35.2013,-118.7212,FALSE,Range Fire,,2016-08-26T10:10:00Z
477,464.0,2016,TRUE,Tehama,52,40.0353,-122.56939000000000,TRUE,Colyear Fire,,2016-06-30T13:32:00Z
478,450.0,2016,TRUE,Calaveras,5,38.1874,-120.6381,TRUE,Willow Fire,,2016-08-28T13:07:00Z
479,441.0,2016,TRUE,Shasta,45,40.36873,-122.72913,TRUE,Fiddler Fire,241.0,2016-07-08T22:45:00Z
480,400.0,2016,TRUE,Yuba,58,36.16965,-121.38775,FALSE,Beale Fire,,2016-08-18T15:35:00Z
481,395.0,2016,FALSE,Tulare,54,36.1648,-118.73906000000000,FALSE,Tule Fire,,2016-08-22T22:00:00Z
482,380.0,2016,TRUE,Modoc,25,41.4657,-120.9066,FALSE,Howard Fire,,2016-09-11T14:15:00Z
483,372.0,2016,TRUE,Amador,3,38.385,-121.003611,FALSE,Rancho Fire,,2016-06-28T19:02:00Z
484,360.0,2016,TRUE,Tehama,52,40.30594,-122.1295,TRUE,Hog Fire,168.0,2016-09-13T23:10:00Z
485,341.0,2016,TRUE,Calaveras,5,38.08056,-120.81394000000000,FALSE,Pacheco Fire,,2016-07-12T13:14:00Z
486,310.0,2016,TRUE,Calaveras,5,38.02845,-120.61153,FALSE,Appaloosa Fire,,2016-07-02T14:55:00Z
487,306.0,2016,TRUE,Kern,15,0.0,0.0,FALSE,Flat Fire,,2016-09-19T14:13:00Z
488,304.0,2016,FALSE,Kern,15,35.4976,-118.5097,FALSE,Havilah Fire,,2016-08-28T18:50:00Z
489,300.0,2016,TRUE,Sutter,51,39.188321,-121.78003000000000,FALSE,Butte Fire,,2016-09-20T09:30:00Z
490,278.0,2016,TRUE,Fresno,10,36.88286,-119.654,FALSE,DeWolf Fire,,2016-05-25T01:03:00Z
491,277.0,2016,TRUE,Yolo,57,38.699710000000000,-122.15457000000000,FALSE,Creek Fire,,2016-06-26T15:45:00Z
492,248.0,2016,FALSE,Plumas,32,39.92,-121.32,FALSE,Tobin Fire,,2016-09-26T13:23:00Z
493,237.0,2016,TRUE,San Benito,35,0.0,0.0,TRUE,King Fire ,,2016-06-17T14:30:00Z
494,221.0,2016,TRUE,Kern,15,35.68313,-118.21793000000000,FALSE,Onyx Fire,,2016-07-13T17:08:00Z
495,215.0,2016,FALSE,Santa Barbara,42,34.75134,-120.55297,FALSE,Washington Fire,,2016-09-22T14:20:00Z
496,215.0,2016,TRUE,Lake,17,39.12366,-122.50373,TRUE,Reservoir Fire,350.0,2016-06-26T16:00:00Z
497,211.0,2016,TRUE,Alameda,1,37.74369,-121.58677,FALSE,Grant Fire,,2016-06-25T16:11:00Z
498,210.0,2016,TRUE,Amador,3,38.26874,-120.90265,TRUE,Camanche Fire,,2016-06-17T14:54:00Z
499,188.0,2016,TRUE,Fresno,10,36.92244,-119.39619000000000,FALSE,Big Fire,,2016-07-11T14:30:00Z
500,176.0,2016,TRUE,El Dorado,9,38.934490000000000,-120.10744,TRUE,Emerald Fire,,2016-10-14T01:28:00Z
501,173.0,2016,TRUE,Riverside,33,0.0,0.0,FALSE,Briggs Fire,,2016-07-12T15:20:00Z
502,169.0,2016,TRUE,Placer,31,38.8390117,-121.3090268,FALSE,Athens Fire,,2016-05-17T15:06:00Z
503,158.0,2016,TRUE,Fresno,10,36.84479,-119.34487,TRUE,Sunny Fire,,2016-09-03T14:44:00Z
504,156.0,2016,FALSE,Los Angeles,19,34.276000000000000,-118.354,FALSE,Wheatland Fire,,2016-05-23T14:15:00Z
505,151.0,2016,TRUE,Fresno,10,0.0,0.0,FALSE,Hills Fire,,2016-04-28T17:45:00Z
506,150.0,2016,FALSE,Del Norte,8,37.75972,-120.02962600000000,FALSE,Old Fire,,2016-09-13T13:55:00Z
507,150.0,2016,FALSE,Orange,30,33.6542,-117.5221,FALSE,Holy Fire,,2016-08-31T04:10:00Z
508,150.0,2016,TRUE,San Luis Obispo,40,35.619610000000000,-120.39993,FALSE,Shedd Fire,,2016-05-10T16:11:00Z
509,147.0,2016,TRUE,San Joaquin,39,37.62215,-121.36665,FALSE,Bird Fire,,2016-08-20T08:35:00Z
510,145.0,2016,TRUE,Fresno,10,36.14161,-120.62048,FALSE,Frame Fire,,2016-07-04T17:15:00Z
511,140.0,2016,TRUE,Stanislaus,50,0.0,0.0,FALSE,Maze Fire,,2016-08-04T15:45:00Z
512,139.0,2016,TRUE,Riverside,33,33.476894,-117.140883,TRUE,Temecula Fire,,2016-06-04T11:40:00Z
513,138.0,2016,TRUE,Kern,15,35.607480000000000,-118.94811000000000,FALSE,Famoso Fire,,2016-07-15T23:55:00Z
514,132.0,2016,TRUE,Fresno,10,36.787690000000000,-119.38248,FALSE,Avocado Fire,,2016-05-15T16:38:00Z
515,130.0,2016,TRUE,Butte,4,39.4403,-121.42647,FALSE,Bangor Fire,,2016-09-22T11:45:00Z
516,123.0,2016,TRUE,Fresno,10,37.0099,-119.5792,TRUE,Green Fire,,2016-07-15T16:45:00Z
517,122.0,2016,FALSE,Mono,26,0.0,0.0,FALSE,Rock Creek Fire,,2016-08-05T15:45:00Z
518,120.0,2016,TRUE,Stanislaus,50,37.17072,-121.42238,FALSE,Coe Fire,,2016-06-07T16:30:00Z
519,114.0,2016,TRUE,Santa Clara,43,37.41896,-121.79669000000000,FALSE,Sierra Fire,,2016-07-30T17:25:00Z
520,112.0,2016,TRUE,Butte,4,39.595,-121.6008,FALSE,Coal Fire,,2016-06-20T16:38:00Z
521,103.0,2016,TRUE,Madera,20,37.256010000000000,-119.65776000000000,FALSE,Broken Fire,,2016-07-04T11:53:00Z
522,100.0,2016,TRUE,Shasta,45,40.0,-121.93923000000000,FALSE,Cow Fire,,2016-09-25T07:15:00Z
523,100.0,2016,TRUE,Santa Clara,43,0.0,0.0,FALSE,Bailey Fire,,2016-08-17T15:19:00Z
524,100.0,2016,TRUE,Kern,15,35.24504,-118.60344000000000,FALSE,Hart Fire,,2016-08-04T17:10:00Z
525,100.0,2016,TRUE,Stanislaus,50,0.0,0.0,FALSE,Diablo Fire,,2016-08-03T16:08:00Z
526,100.0,2016,TRUE,Monterey,27,35.85093,-120.81081,FALSE,Bradley Fire,,2016-07-22T15:15:00Z
527,100.0,2016,TRUE,San Diego,37,32.9612,-116.7945,FALSE,Feather Fire,,2016-07-18T13:08:00Z
528,95.0,2016,TRUE,San Benito,35,5487.0,-120.841536,FALSE,Mercury Fire,,2016-07-09T12:43:00Z
529,91.0,2016,TRUE,Butte,4,39.33035,-121.78973,FALSE,Dunstone Fire,,2016-05-27T13:43:00Z
530,88.0,2016,TRUE,Butte,4,39.79547,-121.71662000000000,TRUE,Santos Fire,,2016-08-26T15:30:00Z
531,88.0,2016,TRUE,Tehama,52,40.07846,-122.2071,FALSE,Flores Fire,,2016-07-01T13:54:00Z
532,88.0,2016,TRUE,Placer,31,38.86804,-121.37704,FALSE,Moore Fire,,2016-06-21T12:24:00Z
533,87.0,2016,TRUE,Sacramento,34,38.517772000000000,-121.103642,FALSE,Scott Fire,,2016-07-10T15:30:00Z
534,86.0,2016,TRUE,San Luis Obispo,40,35.70821,-120.82266000000000,FALSE,Frazier Fire,,2016-06-27T12:07:00Z
535,85.0,2016,TRUE,Madera,20,37.3228,-119.7738,FALSE,Grub Fire,,2016-08-04T14:13:00Z
536,85.0,2016,TRUE,Tuolumne,55,37.927613,-120.52883600000000,TRUE,Tulloch Fire,,2016-05-30T15:10:00Z
537,84.0,2016,TRUE,Yolo,57,38.8866,-122.04726000000000,FALSE,Dunnigan Fire,,2016-07-15T14:00:00Z
538,83.0,2016,TRUE,Calaveras,5,0.0,0.0,TRUE,Cheyenne Fire,,2016-06-15T12:46:00Z
539,83.0,2016,TRUE,San Benito,35,36.499140000000000,-121.04993,FALSE,Old Fire,,2016-06-12T12:45:00Z
540,80.0,2016,TRUE,Tehama,52,40.19611,-122.26736000000000,FALSE,Baker Fire,,2016-08-03T17:27:00Z
541,80.0,2016,TRUE,Madera,20,0.0,0.0,TRUE,Serpa Fire,,2016-07-21T12:53:00Z
542,80.0,2016,TRUE,Tehama,52,39.7947,-121.85700000000000,FALSE,Hoag Fire,,2016-06-11T14:30:00Z
543,78.0,2016,TRUE,Ventura,56,36.92244,-119.39619000000000,FALSE,Sherwood Fire,,2016-07-13T15:52:00Z
544,75.0,2016,TRUE,Shasta,45,40.68192,-122.4096,FALSE,Lake Fire,,2016-09-10T15:45:00Z
545,70.0,2016,TRUE,Fresno,10,36.6543,-119.5327,FALSE,Newmark Fire,,2016-09-23T12:40:00Z
546,70.0,2016,TRUE,Monterey,27,36.2833,-121.3306,FALSE,Arroyo Fire,,2016-06-18T16:47:00Z
547,70.0,2016,TRUE,San Diego,37,33.41639,-117.08829000000000,TRUE,Pala Fire,250.0,2016-05-31T13:48:00Z
548,69.0,2016,TRUE,Lake,17,39.0863,-122.7891,TRUE,Foothill Fire,14.0,2016-07-19T17:16:00Z
549,65.0,2016,TRUE,Napa,28,38.40958,-122.43172,TRUE,Creek Fire,86.0,2016-10-10T16:13:00Z
550,61.0,2016,FALSE,Kern,15,35.77135,-120.251,FALSE,Cotton Fire,,2016-06-11T15:04:00Z
551,57.0,2016,TRUE,Solano,48,38.33475,-122.02564,FALSE,Oak Fire,,2016-07-22T13:01:00Z
552,57.0,2016,TRUE,Calaveras,5,37.98171,-120.64241000000000,TRUE,Baker Fire,,2016-07-21T15:06:00Z
553,56.0,2016,TRUE,Siskiyou,47,0.0,0.0,FALSE,Mill Fire,,2016-05-19T15:37:00Z
554,52.0,2016,TRUE,Monterey,27,36.1934,-120.9293,FALSE,Lowe Fire,,2016-06-23T17:57:00Z
555,50.0,2016,TRUE,Mendocino,23,39.7299,-123.5044,FALSE,Ruff Fire ,,2016-09-10T14:06:00Z
556,50.0,2016,TRUE,San Bernardino,36,34.3183,-117.3189,FALSE,Spring Fire,,2016-09-07T16:53:00Z
557,50.0,2016,TRUE,El Dorado,9,38.79549,-121.00299,TRUE,Storksbill Fire,,2016-07-22T13:15:00Z
558,50.0,2016,FALSE,Ventura,56,0.0,0.0,FALSE,Casitas Fire,,2016-04-28T19:00:00Z
559,49.0,2016,TRUE,Butte,4,39.43351,-121.6051,FALSE,70 Fire,,2016-06-21T15:09:00Z
560,47.0,2016,TRUE,Nevada,29,39.20427,-121.05948000000000,FALSE,Auburn Fire,,2016-09-17T13:40:00Z
561,47.0,2016,TRUE,Orange,30,33.578720000000000,-117.77395,FALSE,Laguna Fire,,2016-06-26T13:10:00Z
562,45.0,2016,TRUE,Amador,3,38.5212,-120.8416,TRUE,Bell Fire,150.0,2016-09-23T13:12:00Z
563,45.0,2016,TRUE,Lake,17,36.099740000000000,-120.51057,FALSE,Kugelman Fire,,2016-08-09T17:30:00Z
564,45.0,2016,TRUE,Ventura,56,34.27619,-118.63264,FALSE,Kuehner Fire,,2016-07-01T14:00:00Z
565,43.0,2016,TRUE,Tehama,52,39.93965,-122.40142,FALSE,Paskenta Fire,,2016-06-21T10:26:00Z
566,43.0,2016,TRUE,Kern,15,0.0,0.0,FALSE,Walker Fire,,2016-05-30T17:57:00Z
567,42.0,2016,TRUE,Lassen,18,0.0,0.0,TRUE,Dockery Fire,,2016-07-30T16:25:00Z
568,40.0,2016,TRUE,Sacramento,34,38.558,-121.1309,FALSE,Boys Fire,,2016-09-11T11:25:00Z
569,40.0,2016,TRUE,Riverside,33,0.0,0.0,FALSE,Evergreen Fire,,2016-08-28T15:23:00Z
570,40.0,2016,TRUE,Contra Costa,7,38.012640000000000,-122.1885,FALSE,Franklin Fire,,2016-07-24T16:30:00Z
571,38.0,2016,FALSE,Nevada,29,39.39051,-120.51887000000000,FALSE,Phoenix Fire,,2016-09-07T15:09:00Z
572,38.0,2016,TRUE,Madera,20,37.24006,-119.4741,FALSE,Fork Fire,,2016-07-29T17:55:00Z
573,36.0,2016,TRUE,Mendocino,23,39.8748511,-123.42670110000000,FALSE,Mina Fire,,2016-08-30T13:35:00Z
574,36.0,2016,TRUE,Lake,17,38.68403,-122.26015,FALSE,Knoxville Fire,,2016-08-09T18:50:00Z
575,35.0,2016,TRUE,San Diego,37,33.22558,-117.14547000000000,FALSE,Gopher Fire,,2016-08-10T09:14:00Z
576,35.0,2016,TRUE,Shasta,45,40.61213,-122.47091,FALSE,Mountain Fire,,2016-08-09T12:14:00Z
577,35.0,2016,TRUE,Butte,4,0.0,0.0,FALSE,Neal Fire,,2016-07-28T14:27:00Z
578,35.0,2016,TRUE,Calaveras,5,37.96311,-120.67335,FALSE,Stagecoach Fire,,2016-07-12T15:19:00Z
579,33.0,2016,TRUE,Calaveras,5,38.22017,-120.8678,FALSE,Campo Fire,,2016-06-27T18:00:00Z
580,32.0,2016,TRUE,Siskiyou,47,41.6314,-122.7933,FALSE,Moffett Fire,,2016-09-12T16:28:00Z
581,32.0,2016,TRUE,Tuolumne,55,37.81434,-120.69521,FALSE,Frymire Fire,,2016-07-30T17:25:00Z
582,32.0,2016,TRUE,Sacramento,34,38.3131,-121.06452,FALSE,Clay Fire,,2016-06-03T16:57:00Z
583,30.0,2016,TRUE,Butte,4,39.8851,-121.6998,FALSE,Old Fire,,2016-09-16T23:28:00Z
584,30.0,2016,TRUE,Inyo,14,36.58972,-118.15589000000000,FALSE,Lone Pine Fire,,2016-07-01T12:56:00Z
585,30.0,2016,TRUE,San Benito,35,36.80296,-121.40304000000000,FALSE,Hidden Fire,,2016-06-03T17:39:00Z
586,30.0,2016,TRUE,Butte,4,39.624017000000000,-121.59509300000000,TRUE,70 Fire,42.0,2016-05-29T16:51:00Z
587,30.0,2016,TRUE,Merced,24,37.2171,-121.08036000000000,FALSE,Taglio Fire,,2016-04-24T11:10:00Z
588,28.0,2016,TRUE,San Diego,37,33.254355,-117.158475,FALSE,Gopher Fire,,2016-11-13T11:14:00Z
589,28.0,2016,TRUE,San Diego,37,33.00056,-116.9571,TRUE,Rock Fire,,2016-07-22T14:47:00Z
590,26.0,2016,TRUE,Amador,3,38.2581,-120.8657,TRUE,Deer Fire,,2016-08-05T13:49:00Z
591,26.0,2016,TRUE,Siskiyou,47,41.961910000000000,-122.59328000000000,FALSE,Bailey Fire,,2016-07-19T14:09:00Z
592,25.0,2016,TRUE,Santa Clara,43,37.11831,-121.69784000000000,FALSE,Oak Fire,,2016-09-01T14:36:00Z
593,25.0,2016,TRUE,Santa Clara,43,37.06531,-121.68577000000000,FALSE,Oak Fire,,2016-08-12T16:00:00Z
594,25.0,2016,FALSE,El Dorado,9,0.0,0.0,FALSE,Alder Fire,,2016-08-06T15:00:00Z
595,25.0,2016,TRUE,Lake,17,0.0,0.0,FALSE,North Branch Extension Fire,,2016-07-29T14:55:00Z
596,25.0,2016,TRUE,El Dorado,9,38.64107,-120.6955,TRUE,Aukum Fire,,2016-06-03T12:41:00Z
597,25.0,2016,TRUE,Monterey,27,35.8378273,-121.0381507,FALSE,Bryson Fire,,2016-05-12T14:13:00Z
598,24.0,2016,TRUE,Shasta,45,40.61388,-122.46777,FALSE,Keswick Fire,,2016-06-11T16:02:00Z
599,23.0,2016,TRUE,Humboldt,12,40.4572,-124.05804000000000,FALSE,Stafford Fire,,2016-08-11T14:57:00Z
600,23.0,2016,TRUE,Siskiyou,47,41.71847,-122.36924000000000,FALSE,Table Fire,,2016-07-21T20:30:00Z
601,21.0,2016,TRUE,Humboldt,12,40.9878,-123.77832,FALSE,Summit Fire,,2016-08-12T17:23:00Z
602,20.0,2016,FALSE,San Bernardino,36,34.25858,-117.4415,FALSE,Ken Fire,,2016-09-03T21:51:00Z
603,20.0,2016,TRUE,Lake,17,39.1408865,-122.9148951,FALSE,Mockingbird Fire,,2016-08-30T16:54:00Z
604,20.0,2016,TRUE,Ventura,56,0.0,0.0,FALSE,Edison Fire,,2016-05-12T14:13:00Z
605,19.0,2016,TRUE,Amador,3,0.0,0.0,TRUE,Willow Fire,,2016-08-30T16:52:00Z
606,15.0,2016,TRUE,Ventura,56,33.11645,-116.58542,FALSE,Shelter Fire,,2016-07-11T12:58:00Z
607,11.0,2016,TRUE,Tehama,52,0.0,0.0,FALSE,Collier Fire,,2016-07-25T16:55:00Z
608,11.0,2016,TRUE,Shasta,45,0.0,0.0,FALSE,Fiddler Fire,,2016-05-25T16:51:00Z
609,10.0,2016,FALSE,Tulare,54,36.217,-118.551,FALSE,Jacobson Fire,,2016-10-20T17:00:00Z
610,0.0,2016,FALSE,Alpine,2,38.575540000000000,-120.00606,FALSE,Mokelumne Fire,,2016-08-18T12:05:00Z
611,0.0,2016,FALSE,Los Angeles,19,0.0,0.0,FALSE,Sand Fire,,2016-07-22T14:11:00Z
612,0.0,2016,FALSE,San Luis Obispo,40,35.01382,-119.58206000000000,FALSE,Soda Fire,,2016-06-04T17:46:00Z
613,0.0,2016,FALSE,Los Angeles,19,0.0,0.0,FALSE,Old Fire,,2016-06-04T16:09:00Z
614,0.0,2016,FALSE,Tulare,54,35.84883,-118.08591000000000,FALSE,Chimney Fire,,2016-06-01T15:35:00Z
615,0.0,2016,FALSE,Los Angeles,19,34.6888731,-118.78925930000000,FALSE,Gorman Fire,,2016-04-19T13:09:00Z
616,281893.0,2017,TRUE,Santa Barbara,42,34.415210000000000,-119.09124000000000,TRUE,Thomas Fire,,2017-12-04T18:28:00Z
617,281893.0,2017,TRUE,Ventura,56,34.415210000000000,-119.09124000000000,TRUE,Thomas Fire,,2017-12-04T18:28:00Z
618,83733.0,2017,FALSE,Lassen,18,40.07045,-120.14013,FALSE,Long Valley Fire,,2017-07-11T14:15:00Z
619,83120.0,2017,FALSE,Modoc,25,0.0,0.0,FALSE,Modoc July Complex,,2017-07-24T12:00:00Z
620,81826.0,2017,TRUE,Mariposa,22,37.61757,-120.21321,TRUE,Detwiler Fire,,2017-07-16T15:56:00Z
621,78698.0,2017,FALSE,Siskiyou,47,41.841,-123.47400000000000,FALSE,Eclipse Complex,,2017-08-15T07:55:00Z
622,56556.0,2017,TRUE,Napa,28,38.4041,-122.5209,TRUE,Nuns / Adobe / Norrbom/ Pressley / Partrick Fires / Oakmont (Central LNU Complex),,2017-10-08T22:00:00Z
623,56556.0,2017,TRUE,Sonoma,49,38.4041,-122.5209,TRUE,Nuns / Adobe / Norrbom/ Pressley / Partrick Fires / Oakmont (Central LNU Complex),,2017-10-08T22:00:00Z
624,51624.0,2017,TRUE,Napa,28,38.39206,-122.24367,TRUE,Atlas Fire (Southern LNU Complex),,2017-10-08T21:52:00Z
625,51624.0,2017,TRUE,Solano,48,38.39206,-122.24367,TRUE,Atlas Fire (Southern LNU Complex),,2017-10-08T21:52:00Z
626,48889.0,2017,TRUE,Kings,16,35.93273,-120.20014000000000,TRUE,Garza Fire,,2017-07-09T15:10:00Z
627,39715.0,2017,FALSE,Siskiyou,47,42.039000000000000,-123.21800000000000,FALSE,Miller Complex,,2017-08-14T14:00:00Z
628,36807.0,2017,TRUE,Napa,28,38.60895,-122.62879,TRUE,Tubbs Fire (Central LNU Complex),,2017-10-08T21:45:00Z
629,36807.0,2017,TRUE,Sonoma,49,38.60895,-122.62879,TRUE,Tubbs Fire (Central LNU Complex),,2017-10-08T21:45:00Z
630,36556.0,2017,FALSE,Tulare,54,36.15356,-118.74103000000000,TRUE,Pier Fire,1728.0,2017-08-29T08:29:00Z
631,36523.0,2017,TRUE,Mendocino,23,39.24873,-123.16635,TRUE,Redwood Valley Fire (Mendocino Lake Complex),,2017-10-08T23:36:00Z
632,28687.0,2017,TRUE,San Luis Obispo,40,35.0179,-120.3223,TRUE,Alamo Fire,153.0,2017-07-06T15:44:00Z
633,27276.0,2017,FALSE,Siskiyou,47,41.59,-123.501,FALSE,Orleans Complex,,2017-07-26T18:00:00Z
634,21846.0,2017,FALSE,Trinity,53,40.76025,-123.10003,FALSE,Helena - Fork Fire,,2017-08-30T18:00:00Z
635,18900.0,2017,FALSE,Tulare,54,36.27138,-118.48555,FALSE,Lion Fire,,2017-09-27T14:00:00Z
636,18618.0,2017,FALSE,Lassen,18,40.69573,-119.93499000000000,FALSE,R-4 Fire,,2017-08-30T08:30:00Z
637,18430.0,2017,FALSE,Santa Barbara,42,34.550960000000000,-119.9494,FALSE,Whittier Fire,,2017-07-08T13:43:00Z
638,17357.0,2017,TRUE,Sonoma,49,38.76549,-122.90939000000000,TRUE,Pocket Fire (Central LNU Complex),,2017-10-09T03:30:00Z
639,16031.0,2017,FALSE,Tulare,54,0.0,0.0,FALSE,Schaeffer Fire,,2017-06-24T16:16:00Z
640,15619.0,2017,FALSE,Los Angeles,19,34.31283,-118.35863,TRUE,Creek Fire,,2017-12-05T03:44:00Z
641,13417.0,2017,FALSE,Trinity,53,40.2275,-123.03583,FALSE,Buck Fire,,2017-09-12T17:42:00Z
642,12407.0,2017,FALSE,Madera,20,37.44663,-119.64622,FALSE,Railroad Fire,,2017-08-29T12:19:00Z
643,10343.0,2017,TRUE,Fresno,10,36.12089,-120.37116,TRUE,Elm Fire,432.0,2017-05-18T13:11:00Z
644,9989.0,2017,TRUE,Yuba,58,39.321980000000000,-121.4021,TRUE,Cascade Fire (Wind Complex),,2017-10-08T23:03:00Z
645,9217.0,2017,TRUE,Orange,30,33.87041,-117.70975,TRUE,Canyon 2 Fire,677.0,2017-10-09T09:51:00Z
646,8925.0,2017,FALSE,Mono,26,38.655,-119.55425,FALSE,Slinkard Fire,,2017-08-29T15:15:00Z
647,8417.0,2017,TRUE,Butte,4,39.624960000000000,-121.52966,TRUE,Cherokee Fire,97.0,2017-10-08T21:45:00Z
648,8094.0,2017,FALSE,Mariposa,22,37.644,-119.618,FALSE,Empire Fire,,2017-08-01T08:45:00Z
649,7697.0,2017,FALSE,Modoc,25,41.466,-120.321,FALSE,Parker 2 Fire,,2017-08-03T14:00:00Z
650,7194.0,2017,FALSE,Los Angeles,19,34.22957,-118.2674,FALSE,La Tuna Fire ,,2017-09-01T13:26:00Z
651,7000.0,2017,FALSE,Mariposa,22,37.538000000000000,-119.598,FALSE,South Fork Fire,,2017-08-14T14:28:00Z
652,6309.0,2017,TRUE,Riverside,33,33.530045,-116.594422,FALSE,Manzanita Fire,,2017-06-26T15:10:00Z
653,6151.0,2017,TRUE,Butte,4,39.39455,-121.40613,TRUE,LaPorte Fire (Wind Complex),,2017-10-09T00:57:00Z
654,6049.0,2017,TRUE,Los Angeles,19,34.45283,-118.58188,TRUE,Rye Fire,652.0,2017-12-05T11:31:00Z
655,6042.0,2017,FALSE,Lassen,18,40.43962,-120.22215,FALSE,Mud Fire,,2017-08-29T14:36:00Z
656,6033.0,2017,TRUE,Butte,4,39.453520000000000,-121.41222000000000,TRUE,Wall Fire,148.0,2017-07-07T14:52:00Z
657,5738.0,2017,TRUE,Fresno,10,36.07228,-120.26561000000000,TRUE,Jayne Fire,,2017-04-20T15:40:00Z
658,5247.0,2017,FALSE,Stanislaus,50,38.329,-119.78200000000000,FALSE,Summit Complex,,2017-07-31T13:44:00Z
659,4736.0,2017,FALSE,Trinity,53,40.175980000000000,-123.36882,FALSE,Ruth Complex,,2017-08-07T22:30:00Z
660,4310.0,2017,FALSE,Plumas,32,39.9034,-120.9761,FALSE,Minerva Fire,,2017-07-29T18:55:00Z
661,4100.0,2017,TRUE,San Diego,37,33.3237,-117.163,TRUE,Lilac Fire,,2017-12-07T11:15:00Z
662,4016.0,2017,TRUE,Butte,4,39.577010000000000,-121.30209000000000,FALSE,Ponderosa Fire,,2017-08-29T13:16:00Z
663,3874.0,2017,TRUE,Riverside,33,33.974710000000000,-117.09984000000000,TRUE,Palmer Fire,,2017-09-02T13:33:00Z
664,3142.0,2017,FALSE,Siskiyou,47,41.853,-123.676,FALSE,Young Fire,,2017-08-07T17:45:00Z
665,2940.0,2017,TRUE,Kern,15,35.77896,-118.89627,FALSE,Hawk Fire,,2017-07-07T09:18:00Z
666,2662.0,2017,TRUE,Orange,30,33.8668,-117.68598,FALSE,Canyon Fire,,2017-09-25T13:03:00Z
667,2575.0,2017,FALSE,Plumas,32,39.75312,-120.75485,FALSE,Eureka Fire,,2017-09-05T18:38:00Z
668,2312.0,2017,FALSE,Kings,16,36.05187,-120.05404000000000,FALSE,I-5 Fire,,2017-08-24T18:13:00Z
669,2295.0,2017,FALSE,Tulare,54,36.257,-118.296,FALSE,Indian Fire,,2017-08-02T18:00:00Z
670,2289.0,2017,TRUE,Tulare,54,36.0226,-118.94252,FALSE,Roadrunner Fire,,2017-07-30T17:43:00Z
671,2269.0,2017,TRUE,Yolo,57,38.49521,-122.0251,TRUE,Winters Fire,123.0,2017-07-06T12:41:00Z
672,2207.0,2017,TRUE,Lake,17,39.013870000000000,-122.64543,TRUE,Sulphur Fire (Mendocino Lake Complex),,2017-10-08T23:59:00Z
673,2056.0,2017,TRUE,San Diego,37,32.65597,-116.80527,TRUE,Gate Fire,665.0,2017-05-20T23:19:00Z
674,1868.0,2017,TRUE,Sonoma,49,0.0,0.0,TRUE,Adobe Fire (Central LNU Complex),,2017-10-09T01:00:00Z
675,1816.0,2017,TRUE,Monterey,27,35.86949,-120.57894000000000,FALSE,Parkfield Fire,,2017-07-08T18:30:00Z
676,1816.0,2017,TRUE,San Luis Obispo,40,35.86949,-120.57894000000000,FALSE,Parkfield Fire,,2017-07-08T18:30:00Z
677,1800.0,2017,TRUE,Merced,24,36.96655,-120.89261,FALSE,Wright Fire,,2017-05-12T15:30:00Z
678,1749.0,2017,FALSE,Stanislaus,50,38.12,-119.941,FALSE,Creek Fire,,2017-09-03T16:23:00Z
679,1660.0,2017,TRUE,Sonoma,49,38.14242,-122.47301000000000,FALSE,37 Fire,,2017-10-09T14:00:00Z
680,1649.0,2017,TRUE,Fresno,10,35.959110000000000,-120.55579000000000,TRUE,Park Fire,727.0,2017-07-17T13:15:00Z
681,1626.0,2017,TRUE,Kern,15,35.59904,-119.08312,FALSE,Quail Fire,,2017-07-06T12:29:00Z
682,1598.0,2017,TRUE,San Luis Obispo,40,35.4025,-120.4992,TRUE,Hill Fire,,2017-06-26T15:27:00Z
683,1538.0,2017,TRUE,Fresno,10,36.269125,-120.620791,TRUE,Derrick Fire,,2017-07-02T22:28:00Z
684,1522.0,2017,FALSE,Kern,15,35.53456,-118.66733,FALSE,Highway Fire,,2017-06-18T14:22:00Z
685,1503.0,2017,FALSE,San Bernardino,36,34.2976,-116.82600000000000,FALSE,Holcomb Fire,,2017-06-19T15:05:00Z
686,1431.0,2017,TRUE,Madera,20,37.0825,-119.8011,TRUE,Oakwood Fire,13.0,2017-06-10T13:19:00Z
687,1350.0,2017,FALSE,Kern,15,35.543,-118.654,FALSE,Garden Fire,,2017-07-30T16:17:00Z
688,1350.0,2017,TRUE,Riverside,33,34.00566,-117.30693000000000,FALSE,Opera Fire,,2017-04-30T15:23:00Z
689,1319.0,2017,FALSE,Kern,15,35.76,-118.406,FALSE,Caldwell Fire,,2017-09-01T14:37:00Z
690,1286.0,2017,TRUE,Sacramento,34,38.5181,-121.104,FALSE,Latrobe Fire,,2017-07-26T14:45:00Z
691,1200.0,2017,TRUE,Kern,15,35.382980000000000,-118.80123,FALSE,Tarina Fire ,,2017-06-30T13:49:00Z
692,1088.0,2017,FALSE,San Diego,37,33.402411,-117.402445,FALSE,Buffalo Fire,,2017-10-17T10:19:00Z
693,1083.0,2017,TRUE,Kern,15,34.94373,-119.44751000000000,FALSE,Hudson Fire,,2017-07-18T11:45:00Z
694,1044.0,2017,TRUE,Riverside,33,33.98212,-117.30819,TRUE,Blaine Fire,,2017-08-13T16:10:00Z
695,1035.0,2017,TRUE,Madera,20,37.216160000000000,-119.48067000000000,TRUE,Mission Fire,,2017-09-03T13:06:00Z
696,1020.0,2017,FALSE,Plumas,32,39.75371,-120.1397,FALSE,Chilcoot Fire,,2017-08-06T15:32:00Z
697,1000.0,2017,FALSE,San Diego,37,33.34988,-117.39818000000000,FALSE,Range Fire,,2017-05-25T18:15:00Z
698,995.0,2017,TRUE,Shasta,45,40.98352,-121.81623,TRUE,Berry Fire,317.0,2017-09-12T06:58:00Z
699,976.0,2017,FALSE,Fresno,10,36.530836,-120.20659200000000,FALSE,El Dorado Fire,,2017-04-28T15:40:00Z
700,900.0,2017,TRUE,Mendocino,23,39.30125,-123.28825,TRUE,Grade Fire,,2017-07-16T14:51:00Z
701,867.0,2017,TRUE,Yuba,58,39.1234,-121.32957000000000,FALSE,Beale Fire,,2017-08-20T14:44:00Z
702,866.0,2017,TRUE,Riverside,33,33.602470000000000,-117.34192,FALSE,Wildomar Fire,,2017-10-26T12:34:00Z
703,859.0,2017,FALSE,Lassen,18,39.888000000000000,-120.066,FALSE,Poslin Fire,,2017-08-06T19:52:00Z
704,821.0,2017,TRUE,Nevada,29,39.245490000000000,-121.12792000000000,TRUE,Lobo Fire (Wind Complex),,2017-10-09T00:01:00Z
705,800.0,2017,FALSE,Los Angeles,19,34.55607,-118.60703000000000,FALSE,Lake Fire,,2017-06-17T13:55:00Z
706,775.0,2017,TRUE,San Luis Obispo,40,35.7908,-120.77485,FALSE,Yankee Fire,,2017-08-11T16:06:00Z
707,760.0,2017,FALSE,Los Angeles,19,34.37443,-118.49343,FALSE,Placerita Fire,,2017-06-25T12:47:00Z
708,747.0,2017,FALSE,Sierra,46,39.439722000000000,-120.027222,FALSE,Farad Fire,,2017-07-10T13:02:00Z
709,690.0,2017,TRUE,Tuolumne,55,37.905545000000000,-120.40813500000000,TRUE,Jacksonville Fire,,2017-07-29T13:50:00Z
710,680.0,2017,TRUE,Mariposa,22,37.37397,-119.83556000000000,TRUE,Peak Fire,8.0,2017-09-03T13:10:00Z
711,670.0,2017,FALSE,San Bernardino,36,34.14575,-117.17813000000000,FALSE,Mart Fire,,2017-06-27T15:22:00Z
712,630.0,2017,TRUE,Mariposa,22,37.3762,-119.9646,TRUE,Ben Fire,380.0,2017-06-28T15:49:00Z
713,562.0,2017,FALSE,Modoc,25,41.85763,-121.29581,FALSE,Battle Fire,,2017-06-28T13:50:00Z
714,545.0,2017,TRUE,Riverside,33,33.950360000000000,-116.88066,TRUE,Mias Fire,,2017-08-14T15:45:00Z
715,530.0,2017,FALSE,Lassen,18,41.119890000000000,-120.74968,FALSE,W-2 Fire,,2017-08-06T15:29:00Z
716,506.0,2017,TRUE,Kern,15,35.4605,-118.85896000000000,FALSE,Ming Fire,,2017-05-20T14:23:00Z
717,486.0,2017,FALSE,San Diego,37,33.3906,-117.32348,FALSE,Deluz Fire,,2017-05-19T14:45:00Z
718,469.0,2017,TRUE,Siskiyou,47,41.3975,-122.8428,TRUE,Fay Fire,,2017-07-05T11:05:00Z
719,460.0,2017,TRUE,San Luis Obispo,40,35.40357,-120.28037000000000,FALSE,Red Fire,,2017-08-02T10:15:00Z
720,460.0,2017,TRUE,San Bernardino,36,34.09773,-117.10567000000000,FALSE,Bridge Fire,,2017-07-14T14:23:00Z
721,450.0,2017,TRUE,Fresno,10,36.616986,-120.36934700000000,FALSE,Monterey Fire,,2017-06-11T17:15:00Z
722,444.0,2017,TRUE,Santa Barbara,42,34.67403,-120.4393,FALSE,Rucker Fire,,2017-09-29T14:42:00Z
723,429.0,2017,TRUE,Madera,20,37.14624,-120.01550900000000,FALSE,Eastman Fire,,2017-09-18T16:04:00Z
724,426.0,2017,FALSE,El Dorado,9,38.848,-120.287,FALSE,Table Fire,,2017-10-13T13:16:00Z
725,422.0,2017,FALSE,Los Angeles,19,34.09454,-118.48178,TRUE,Skirball Fire,,2017-12-06T06:31:00Z
726,416.0,2017,TRUE,Tulare,54,36.22265,-119.06598000000000,FALSE,Elephant Fire,,2017-07-20T19:16:00Z
727,410.0,2017,FALSE,Modoc,25,41.72163,-121.30451000000000,FALSE,Dode Fire,,2017-07-13T15:23:00Z
728,400.0,2017,TRUE,San Diego,37,32.84796,-116.85396000000000,TRUE,Jennings Fire,,2017-07-11T13:45:00Z
729,400.0,2017,TRUE,Fresno,10,36.45491,-120.2445,FALSE,Sonoma Fire,,2017-05-10T15:27:00Z
730,392.0,2017,TRUE,Nevada,29,39.34292,-121.12004000000000,TRUE,Pleasant Fire,48.0,2017-08-30T15:38:00Z
731,391.0,2017,TRUE,Santa Cruz,44,37.18356,-122.07012000000000,TRUE,Bear Fire,10.0,2017-10-16T22:30:00Z
732,380.0,2017,TRUE,Modoc,25,41.167160000000000,-120.58342000000000,FALSE,West Fire,,2017-04-03T16:00:00Z
733,370.0,2017,FALSE,Mono,26,38.46111,-119.48284,FALSE,Chris Fire,,2017-11-13T11:28:00Z
734,370.0,2017,TRUE,Contra Costa,7,38.02929,-122.25544,FALSE,Willow Fire,,2017-07-08T15:26:00Z
735,357.0,2017,TRUE,Fresno,10,36.27306,-120.65185,FALSE,Creek Fire,,2017-06-23T16:00:00Z
736,340.0,2017,TRUE,San Luis Obispo,40,35.42433,-120.47322,TRUE,Stone Fire,,2017-07-09T13:49:00Z
737,339.0,2017,TRUE,Tulare,54,36.458090000000000,-118.87676,TRUE,Dinely Fire,435.0,2017-06-07T11:55:00Z
738,338.0,2017,TRUE,Kern,15,34.92907,-118.9267,TRUE,Rose Fire,,2017-08-10T14:32:00Z
739,325.0,2017,TRUE,San Bernardino,36,34.084920000000000,-117.03826000000000,TRUE,Bryant Fire,,2017-08-03T15:35:00Z
740,319.0,2017,FALSE,Del Norte,8,41.478,-123.506,FALSE,Marble Fire,,2017-07-19T14:00:00Z
741,300.0,2017,FALSE,Riverside,33,33.59257,-117.14979,FALSE,Liberty Fire,,2017-12-07T13:14:00Z
742,288.0,2017,TRUE,Kern,15,35.41283,-118.84466,FALSE,Bravo Fire,,2017-05-15T14:05:00Z
743,260.0,2017,TRUE,San Bernardino,36,34.16564,-117.33334000000000,FALSE,Little Mountain Fire,,2017-12-05T13:35:00Z
744,255.0,2017,TRUE,San Diego,37,33.34659,-116.66107,FALSE,Lost Fire,,2017-07-22T15:00:00Z
745,245.0,2017,TRUE,San Luis Obispo,40,35.122690000000000,-120.39387000000000,TRUE,Huasna Fire,,2017-09-20T13:41:00Z
746,237.0,2017,TRUE,Fresno,10,36.24653,-120.31598000000000,FALSE,Murphy Fire,,2017-09-19T19:47:00Z
747,236.0,2017,TRUE,El Dorado,9,38.538332000000000,-121.039267,FALSE,Largo Fire,,2017-07-30T01:45:00Z
748,231.0,2017,TRUE,Contra Costa,7,37.87808,-121.78677000000000,FALSE,Deer Complex,,2017-07-08T02:20:00Z
749,225.0,2017,TRUE,Mariposa,22,37.4591,-119.921,TRUE,Spring Fire,498.0,2017-07-02T13:36:00Z
750,225.0,2017,TRUE,San Luis Obispo,40,35.34541,-120.76464000000000,FALSE,Camp Fire,,2017-05-18T08:48:00Z
751,225.0,2017,TRUE,San Luis Obispo,40,35.21177,-119.87525,FALSE,Arrow Fire,,2017-05-15T13:58:00Z
752,206.0,2017,TRUE,Kern,15,35.598040000000000,-118.47939,FALSE,Bodfish Fire,,2017-06-10T12:17:00Z
753,205.0,2017,TRUE,Riverside,33,33.853230000000000,-117.48195,FALSE,Eagle Fire,,2017-07-04T16:55:00Z
754,200.0,2017,FALSE,Lake,17,39.44543,-122.85194000000000,FALSE,Skeleton Fire,,2017-09-12T14:36:00Z
755,200.0,2017,FALSE,Alameda,1,37.725430000000000,-121.90516000000000,FALSE,Range Fire,,2017-08-22T14:00:00Z
756,200.0,2017,TRUE,San Diego,37,32.65003,-116.42907,TRUE,Eclipse Fire,,2017-08-21T14:00:00Z
757,200.0,2017,TRUE,Riverside,33,33.689092000000000,-117.396404,FALSE,Rose Fire,,2017-07-31T14:22:00Z
758,194.0,2017,TRUE,Tehama,52,40.02261,-121.91425,FALSE,Tehama Fire,,2017-10-26T20:00:00Z
759,190.0,2017,TRUE,Santa Barbara,42,34.9465,-119.8036,FALSE,Wasioja Fire,,2017-05-20T17:54:00Z
760,186.0,2017,FALSE,Plumas,32,39.9864,-120.89746000000000,FALSE,Toll Fire,,2017-08-20T16:26:00Z
761,186.0,2017,TRUE,Fresno,10,36.704679,-120.405077,FALSE,Wild Fire,,2017-06-11T10:46:00Z
762,184.0,2017,TRUE,Kern,15,35.3091,-118.70100000000000,FALSE,Rolling Fire,,2017-10-15T17:11:00Z
763,183.0,2017,TRUE,Kern,15,35.19008,-118.76152000000000,FALSE,Quarry Fire,,2017-10-12T10:42:00Z
764,180.0,2017,TRUE,Shasta,45,40.471060000000000,-122.43608,TRUE,Laverne Fire,,2017-07-18T12:39:00Z
765,170.0,2017,TRUE,San Bernardino,36,34.412040000000000,-117.03031000000000,TRUE,High Fire,,2017-07-23T15:53:00Z
766,168.0,2017,TRUE,Riverside,33,33.87679,-117.00258000000000,FALSE,Hills Fire,,2017-08-19T16:31:00Z
767,168.0,2017,FALSE,Sierra,46,39.711010000000000,-120.02325,FALSE,Evans Fire,,2017-06-19T21:41:00Z
768,166.0,2017,TRUE,Butte,4,39.37192,-121.53865,FALSE,Honcut Fire,,2017-07-10T14:45:00Z
769,157.0,2017,TRUE,Lassen,18,40.80968,-120.48641,FALSE,Peg Fire,,2017-08-26T12:35:00Z
770,157.0,2017,TRUE,Madera,20,37.127590000000000,-120.0193,FALSE,26 Fire,,2017-06-07T21:00:00Z
771,155.0,2017,TRUE,Alameda,1,37.63358,-121.49925,FALSE,Corral Fire,,2017-09-19T14:05:00Z
772,155.0,2017,TRUE,Siskiyou,47,41.9808,-121.9741,FALSE,Hill Fire,,2017-07-29T16:33:00Z
773,153.0,2017,TRUE,Riverside,33,33.98639,-117.21314,FALSE,Smiley Fire,,2017-06-18T15:10:00Z
774,150.0,2017,TRUE,Butte,4,39.746790000000000,-121.67261,TRUE,Honey Fire,13.0,2017-10-09T15:05:00Z
775,150.0,2017,TRUE,San Luis Obispo,40,35.7751,-120.23656000000000,TRUE,Olive Fire,,2017-07-24T14:43:00Z
776,150.0,2017,TRUE,San Luis Obispo,40,35.6871,-120.3187,FALSE,Lucy Fire,,2017-06-14T11:44:00Z
777,150.0,2017,TRUE,Madera,20,36.90967,-119.79315,FALSE,41 Fire,,2017-05-17T15:30:00Z
778,150.0,2017,FALSE,San Bernardino,36,34.30104,-117.45646,FALSE,Tower Fire,,2017-04-30T16:03:00Z
779,148.0,2017,FALSE,Trinity,53,40.46836,-123.51619,FALSE,River Fire,,2017-10-14T16:00:00Z
780,146.0,2017,TRUE,Mendocino,23,39.02482,-123.1362,TRUE,Grape Fire,,2017-09-19T13:02:00Z
781,143.0,2017,TRUE,Butte,4,40.07613,-121.56858000000000,FALSE,Soda Fire,,2017-09-28T14:46:00Z
782,140.0,2017,TRUE,El Dorado,9,38.559707,-120.70013,TRUE,Ranch Fire,,2017-07-26T13:58:00Z
783,136.0,2017,TRUE,El Dorado,9,38.5758,-120.915,TRUE,French Fire,,2017-09-17T15:18:00Z
784,135.0,2017,FALSE,Los Angeles,19,34.792882,-118.85194300000000,FALSE,Gorman Fire,,2017-07-28T15:25:00Z
785,135.0,2017,TRUE,Tulare,54,35.8556,-118.74542,TRUE,King Fire,212.0,2017-06-13T17:00:00Z
786,134.0,2017,TRUE,Butte,4,39.69717,-121.75417,FALSE,Skyway Fire,,2017-06-16T09:27:00Z
787,130.0,2017,TRUE,Calaveras,5,38.40234,-120.52953000000000,TRUE,Point Fire,,2017-10-09T01:10:00Z
788,130.0,2017,TRUE,San Diego,37,32.6001,-116.76997,TRUE,Border Fire,220.0,2017-09-01T04:20:00Z
789,130.0,2017,TRUE,San Luis Obispo,40,35.78286,-120.22647000000000,FALSE,Olive Fire,,2017-05-02T14:32:00Z
790,128.0,2017,TRUE,Shasta,45,40.69554,-122.0122,FALSE,Oak Fire,,2017-07-01T00:48:00Z
791,126.0,2017,TRUE,Fresno,10,36.5355,-120.6585,FALSE,Tumey Fire,,2017-04-29T17:15:00Z
792,125.0,2017,TRUE,Mariposa,22,37.62823,-120.30046000000000,FALSE,Coronado Fire,,2017-08-13T16:23:00Z
793,124.0,2017,TRUE,Tuolumne,55,37.90014,-120.36005,FALSE,Twist Fire,,2017-07-30T16:28:00Z
794,122.0,2017,TRUE,Riverside,33,34.009026,-117.239099,FALSE,Stewart Fire,,2017-08-04T14:25:00Z
795,120.0,2017,TRUE,San Luis Obispo,40,35.31886,-120.50886000000000,FALSE,Margarita Fire,,2017-09-03T16:59:00Z
796,120.0,2017,TRUE,Riverside,33,33.882870000000000,-116.99651000000000,FALSE,Lamb Fire,,2017-05-25T14:48:00Z
797,117.0,2017,TRUE,Calaveras,5,38.291130000000000,-120.62177,TRUE,Maria Fire,,2017-07-17T12:55:00Z
798,116.0,2017,TRUE,Alameda,1,37.7393,-121.85663000000000,FALSE,Fallon Fire,,2017-10-17T14:00:00Z
799,114.0,2017,TRUE,Napa,28,38.493360000000000,-122.2483,TRUE,Canyon Fire,55.0,2017-08-11T12:57:00Z
800,111.0,2017,TRUE,Fresno,10,36.93332,-119.43376,FALSE,Flat Fire,,2017-08-26T14:31:00Z
801,111.0,2017,TRUE,Butte,4,39.384160000000000,-121.5786,FALSE,Lone Fire,,2017-06-22T11:10:00Z
802,105.0,2017,TRUE,San Luis Obispo,40,35.3024,-120.65279,FALSE,Poly Fire,,2017-09-26T15:30:00Z
803,105.0,2017,TRUE,Riverside,33,33.950382,-116.884446,FALSE,Canyon Fire,,2017-06-15T11:36:00Z
804,103.0,2017,TRUE,Butte,4,39.76243,-121.74121000000000,FALSE,Humboldt Fire,,2017-07-19T16:02:00Z
805,102.0,2017,TRUE,Fresno,10,36.361130000000000,-120.32685,FALSE,Coalinga Fire,,2017-08-30T16:51:00Z
806,101.0,2017,FALSE,Santa Clara,43,37.39801,-121.8179,FALSE,Lariat Fire,,2017-07-11T16:51:00Z
807,100.0,2017,TRUE,San Diego,37,32.64962,-116.37345,FALSE,Church Fire,,2017-10-21T13:04:00Z
808,100.0,2017,TRUE,Sonoma,49,38.46123,-122.58152,TRUE,Oakmont Fire (Central LNU Complex),,2017-10-14T20:35:00Z
809,100.0,2017,TRUE,Lake,17,39.0199,-122.57487000000000,FALSE,Long Fire,,2017-10-14T05:00:00Z
810,100.0,2017,TRUE,Solano,48,38.43658,-121.97233,FALSE,Timm Fire,,2017-10-02T09:37:00Z
811,100.0,2017,TRUE,Santa Clara,43,36.99092,-121.59899000000000,FALSE,Bally Fire,,2017-09-03T19:17:00Z
812,100.0,2017,TRUE,Fresno,10,36.09486,-120.52189000000000,FALSE,Parkfield Fire,,2017-09-03T09:23:00Z
813,100.0,2017,TRUE,Santa Clara,43,37.14653,-121.68165,FALSE,Tilton Fire,,2017-08-11T14:55:00Z
814,100.0,2017,FALSE,San Bernardino,36,34.19076,-117.26969,FALSE,Mile Fire,,2017-07-31T14:44:00Z
815,99.0,2017,TRUE,San Bernardino,36,34.035344,-116.940661,FALSE,Oak Fire,,2017-11-29T12:19:00Z
816,92.0,2017,TRUE,Riverside,33,33.57139,-116.8247,TRUE,Reed Fire,,2017-08-07T14:14:00Z
817,91.0,2017,TRUE,Fresno,10,36.95104,-119.65621000000000,TRUE,Auberry Fire,,2017-07-05T15:40:00Z
818,91.0,2017,TRUE,Butte,4,39.52499,-121.64897000000000,FALSE,Wilbur Fire,,2017-06-06T12:43:00Z
819,90.0,2017,TRUE,Madera,20,37.09773,-120.02027,FALSE,Daulton Fire,,2017-07-07T10:00:00Z
820,87.0,2017,TRUE,Lake,17,39.15016,-122.57600000000000,TRUE,Ridge Fire,,2017-10-06T14:38:00Z
821,86.0,2017,TRUE,Ventura,56,34.34949,-119.30918,FALSE,Vista Fire,,2017-10-24T14:44:00Z
822,85.0,2017,TRUE,Riverside,33,117.337331,34.015742000000000,FALSE,Marlborough Fire,,2017-08-31T10:13:00Z
823,85.0,2017,TRUE,Humboldt,12,40.117940000000000,-123.76099000000000,FALSE,Saw Fire,,2017-08-03T11:58:00Z
824,85.0,2017,FALSE,San Bernardino,36,34.20152,-117.14466000000000,FALSE,Dollar Fire,,2017-07-22T13:35:00Z
825,85.0,2017,TRUE,Santa Clara,43,37.3344,-121.71752,FALSE,Ranch Fire,,2017-06-29T13:56:00Z
826,82.0,2017,TRUE,Monterey,27,35.86596,-120.64584000000000,FALSE,Country Fire,,2017-08-07T18:08:00Z
827,81.0,2017,FALSE,San Diego,37,33.38613,-117.46709000000000,FALSE,Loma Fire,,2017-10-13T15:40:00Z
828,80.0,2017,FALSE,El Dorado,9,38.869036,-119.61865,FALSE,Holiday Fire,,2017-12-28T20:51:00Z
829,79.0,2017,TRUE,Plumas,32,40.13278,-120.9204,FALSE,Mills File,,2017-09-03T20:32:00Z
830,79.0,2017,TRUE,Tulare,54,35.89423,-119.00334,FALSE,Fountain Fire ,,2017-05-31T11:30:00Z
831,78.0,2017,TRUE,Santa Clara,43,36.96607,-121.55552,FALSE,Castro Fire,,2017-07-23T16:07:00Z
832,78.0,2017,TRUE,Tehama,52,40.38944,-122.13088,FALSE,Spring Fire ,,2017-06-04T16:22:00Z
833,76.0,2017,TRUE,Nevada,29,39.19325,-121.08406000000000,TRUE,McCourtney Fire (Wind Complex),,2017-10-09T00:00:00Z
834,76.0,2017,TRUE,Fresno,10,36.8005,-119.35901000000000,FALSE,Tivy Fire,,2017-06-11T22:45:00Z
835,74.0,2017,TRUE,San Luis Obispo,40,35.5956,-120.56068,FALSE,Linne Fire,,2017-09-26T16:45:00Z
836,74.0,2017,TRUE,El Dorado,9,38.7803,-120.97111000000000,TRUE,Axel Fire,,2017-07-08T16:38:00Z
837,74.0,2017,TRUE,San Bernardino,36,34.07612,-117.06765,FALSE,Bryant Fire,,2017-07-07T15:45:00Z
838,73.0,2017,TRUE,San Luis Obispo,40,35.786160000000000,-120.96514000000000,FALSE,Lynch Fire,,2017-10-13T12:14:00Z
839,72.0,2017,TRUE,Riverside,33,33.75526,-117.25075,FALSE,Ellis Fire,,2017-07-18T15:34:00Z
840,70.0,2017,TRUE,San Luis Obispo,40,35.4403,-120.2913,FALSE,Camatta Fire,,2017-08-02T10:33:00Z
841,70.0,2017,TRUE,Colusa,6,39.012240000000000,-122.20127,TRUE,Sand Fire,76.0,2017-07-17T13:17:00Z
842,70.0,2017,TRUE,Santa Clara,43,37.25014,-121.68562,FALSE,Felipe Fire,,2017-07-10T15:54:00Z
843,70.0,2017,TRUE,Fresno,10,36.60736,-120.5828,FALSE,Manning Fire,,2017-05-19T23:28:00Z
844,69.0,2017,TRUE,Fresno,10,36.7279,-119.28241000000000,FALSE,Hill Fire,,2017-08-27T18:47:00Z
845,68.0,2017,TRUE,Sacramento,34,38.337070000000000,-121.11113,FALSE,Clay Fire,,2017-06-01T15:38:00Z
846,67.0,2017,TRUE,Lassen,18,40.03392,-120.1064,FALSE,River Fire,,2017-06-04T16:12:00Z
847,65.0,2017,TRUE,Stanislaus,50,37.82934,-120.68992,FALSE,Orange Fire,,2017-06-21T14:45:00Z
848,63.0,2017,TRUE,Riverside,33,33.819760000000000,-117.18552,FALSE,Placentia Fire,,2017-07-28T18:11:00Z
849,63.0,2017,TRUE,Mariposa,22,37.36914,-120.0088,FALSE,Westfall Fire,,2017-06-15T07:30:00Z
850,62.0,2017,TRUE,San Diego,37,33.20988,-116.46989000000000,FALSE,Montezuma Fire,,2017-08-26T11:30:00Z
851,62.0,2017,TRUE,Lake,17,38.94599,-122.81135,TRUE,Bottle Fire,,2017-08-08T16:40:00Z
852,62.0,2017,TRUE,Stanislaus,50,37.64898,-120.4925,FALSE,Lake Fire,,2017-07-08T11:00:00Z
853,60.0,2017,TRUE,Tehama,52,40.32063,-122.83208,FALSE,Bolla Fire,,2017-06-18T07:15:00Z
854,59.0,2017,TRUE,Tulare,54,36.18815,-118.78928,FALSE,Fox Fire,,2017-07-17T15:32:00Z
855,59.0,2017,TRUE,Calaveras,5,38.18303,-120.85322,TRUE,Quail Fire,,2017-07-12T13:10:00Z
856,58.0,2017,TRUE,Fresno,10,36.7528,-119.2288,TRUE,Silver Fire,,2017-10-11T15:59:00Z
857,58.0,2017,FALSE,Lake,17,39.42604,-123.03344000000000,FALSE,Slides Fire,,2017-09-12T16:08:00Z
858,58.0,2017,TRUE,Tulare,54,36.644040000000000,-118.99944000000000,FALSE,Hogback Fire,,2017-07-18T15:50:00Z
859,58.0,2017,TRUE,San Luis Obispo,40,35.346,-120.62825,FALSE,Tower Fire,,2017-07-07T16:23:00Z
860,57.0,2017,TRUE,Tehama,52,40.1583,-122.3209,FALSE,Live Fire,,2017-07-28T13:24:00Z
861,57.0,2017,TRUE,Fresno,10,36.81476,-119.51592,FALSE,Freedom Fire,,2017-07-04T13:21:00Z
862,56.0,2017,TRUE,Siskiyou,47,41.93006,-122.36545,FALSE,Bogus Fire,,2017-06-18T15:45:00Z
863,55.0,2017,TRUE,Solano,48,38.4446,-122.0041,TRUE,Estate Fire,,2017-09-23T11:05:00Z
864,55.0,2017,TRUE,Siskiyou,47,41.99483,-121.90077,FALSE,Owens Fire,,2017-08-29T15:39:00Z
865,55.0,2017,FALSE,Los Angeles,19,34.03941,-118.58624000000000,FALSE,Topanga Fire,,2017-06-29T15:09:00Z
866,54.0,2017,FALSE,Siskiyou,47,41.222,-122.292,FALSE,Bradley Fire,,2017-08-28T22:00:00Z
867,54.0,2017,FALSE,Siskiyou,47,41.222,-122.27499000000000,FALSE,Bradley Fire,,2017-08-28T21:38:00Z
868,54.0,2017,TRUE,Santa Clara,43,37.334540000000000,-121.76323000000000,FALSE,Quimby Fire,,2017-06-21T18:02:00Z
869,51.0,2017,TRUE,Santa Clara,43,37.44485,-121.84108,FALSE,Weller Fire,,2017-07-26T23:19:00Z
870,50.0,2017,TRUE,Kern,15,35.215560000000000,-118.56578,FALSE,Tank Fire,,2017-10-26T11:55:00Z
871,50.0,2017,TRUE,Riverside,33,33.8826,-117.00589,FALSE,Extension Fire,,2017-10-23T10:31:00Z
872,50.0,2017,FALSE,Los Angeles,19,34.22551,-118.05545,FALSE,Wilson Fire,,2017-10-17T03:43:00Z
873,50.0,2017,TRUE,San Mateo,41,37.41591,-122.3001,TRUE,Skeggs Fire,85.0,2017-09-11T19:41:00Z
874,50.0,2017,FALSE,Kern,15,35.70639,-118.47307000000000,FALSE,Calgary Fire,,2017-08-05T13:16:00Z
875,50.0,2017,TRUE,Santa Barbara,42,34.72379,-120.13249000000000,FALSE,Mesa Fire,,2017-07-17T14:55:00Z
876,50.0,2017,TRUE,Yuba,58,39.06308,-121.303,FALSE,West Fire,,2017-07-08T16:47:00Z
877,50.0,2017,FALSE,Ventura,56,34.20599,-118.98603,FALSE,Grade Fire,,2017-07-04T14:45:00Z
878,50.0,2017,TRUE,Riverside,33,33.877390000000000,-117.16215,FALSE,Lago Fire,,2017-07-03T15:14:00Z
879,50.0,2017,FALSE,San Diego,37,33.23281,-117.29509000000000,FALSE,Douglas Fire,,2017-06-13T14:31:00Z
880,48.0,2017,TRUE,Madera,20,36.94652,-120.90462,FALSE,Power Fire,,2017-09-20T21:07:00Z
881,48.0,2017,TRUE,Riverside,33,33.585770000000000,-116.07429000000000,FALSE,Serenas Fire,,2017-05-28T15:27:00Z
882,47.0,2017,TRUE,San Benito,35,36.38109,-121.00391,FALSE,Bitterwater Fire,,2017-11-25T16:46:00Z
883,47.0,2017,TRUE,San Luis Obispo,40,35.06472,-120.5634,FALSE,Zenon Fire,,2017-07-20T14:43:00Z
884,46.0,2017,FALSE,Riverside,33,33.6444,-117.3968,FALSE,Canyon Fire,,2017-08-27T14:51:00Z
885,46.0,2017,FALSE,San Bernardino,36,34.149,-117.189,FALSE,Hidden Fire,,2017-07-12T15:29:00Z
886,46.0,2017,TRUE,Siskiyou,47,41.8721,-122.4571,TRUE,Whitepine Fire,,2017-06-06T16:38:00Z
887,45.0,2017,FALSE,Riverside,33,33.9885,-117.38417,FALSE,Riverbottom Fire,,2017-12-21T11:16:00Z
888,45.0,2017,FALSE,San Luis Obispo,40,35.28738,-120.44448,FALSE,Pozo Fire,,2017-10-09T14:30:00Z
889,45.0,2017,TRUE,Shasta,45,40.487120000000000,-121.85645,FALSE,Grace Fire,,2017-04-03T16:00:00Z
890,44.0,2017,TRUE,Alameda,1,37.561810000000000,-121.56425,FALSE,Mines Fire,,2017-08-27T17:45:00Z
891,43.0,2017,TRUE,Tehama,52,39.81517,-122.28165,FALSE,Roser Fire,,2017-11-02T14:40:00Z
892,43.0,2017,TRUE,Monterey,27,36.17297,-120.87609000000000,FALSE,Pine Fire,,2017-09-11T15:11:00Z
893,42.0,2017,TRUE,Monterey,27,35.96275,-121.08753,FALSE,Lockwood Fire,,2017-06-29T20:44:00Z
894,42.0,2017,TRUE,Tehama,52,40.10282,-122.27379000000000,FALSE,Paskenta Fire,,2017-06-24T11:15:00Z
895,42.0,2017,TRUE,Modoc,25,41.38247,-120.53443,FALSE,Jones Fire,,2017-06-03T13:09:00Z
896,41.0,2017,FALSE,Siskiyou,47,41.99279,-122.9401,FALSE,Ward Fire,,2017-08-13T12:41:00Z
897,41.0,2017,TRUE,Los Angeles,19,34.104460000000000,-118.70294000000000,FALSE,Stokes Fire,,2017-06-29T15:45:00Z
898,41.0,2017,TRUE,Kern,15,35.05076,-118.90004000000000,FALSE,Feed Fire,,2017-05-14T14:00:00Z
899,40.0,2017,TRUE,Riverside,33,33.965140000000000,-117.4764,FALSE,Riverdale Fire,,2017-12-04T12:26:00Z
900,40.0,2017,TRUE,Riverside,33,33.90327,-116.50151000000000,FALSE,Palm Fire,,2017-11-14T16:11:00Z
901,40.0,2017,FALSE,San Bernardino,36,34.13534,-117.4982,FALSE,Freeway Fire,,2017-10-24T10:27:00Z
902,40.0,2017,TRUE,Shasta,45,40.70627,-122.24199000000000,FALSE,Jones Fire,,2017-10-08T04:53:00Z
903,40.0,2017,TRUE,Kern,15,35.59302,-118.46734,FALSE,Lakewood Fire,,2017-09-29T15:58:00Z
904,40.0,2017,FALSE,Del Norte,8,41.98128,-124.01168,FALSE,Hole Fire,,2017-09-12T12:45:00Z
905,40.0,2017,FALSE,Humboldt,12,41.02705,-123.63721000000000,FALSE,Translator Fire,,2017-08-28T08:01:00Z
906,40.0,2017,TRUE,Tehama,52,40.29831,-122.70449000000000,FALSE,Vestal Fire,,2017-08-26T15:03:00Z
907,40.0,2017,TRUE,Lake,17,38.86056,-122.62382,FALSE,Murphy Fire,,2017-07-17T14:44:00Z
908,40.0,2017,FALSE,Monterey,27,36.66684,-121.74826000000000,FALSE,Reservation Fire,,2017-07-16T11:17:00Z
909,39.0,2017,TRUE,Tuolumne,55,37.896778000000000,-120.50413400000000,FALSE,Table Fire,,2017-09-19T00:22:00Z
910,39.0,2017,TRUE,Yuba,58,39.065220000000000,-121.3519,TRUE,Spenceville Fire,,2017-07-24T14:56:00Z
911,39.0,2017,FALSE,Solano,48,38.07481,-122.23004000000000,FALSE,Toll Fire,,2017-06-22T13:08:00Z
912,38.0,2017,TRUE,Marin,21,37.9775,-122.65749,FALSE,Pine Fire,,2017-06-27T10:39:00Z
913,38.0,2017,TRUE,Tuolumne,55,37.85137,-120.45268,FALSE,Red Fire,,2017-06-11T18:49:00Z
914,37.0,2017,FALSE,Shasta,45,40.774,-122.309,FALSE, Bridge Fire,,2017-10-31T11:22:00Z
915,36.0,2017,TRUE,Mariposa,22,37.65963,-120.34802000000000,FALSE,Banderilla Fire,,2017-07-07T15:50:00Z
916,36.0,2017,TRUE,San Diego,37,33.1683,-116.77342,FALSE,Black Fire,,2017-06-25T12:09:00Z
917,35.0,2017,TRUE,Riverside,33,33.74925,-117.10301000000000,FALSE,Melba Fire,,2017-09-29T18:01:00Z
918,35.0,2017,TRUE,Marin,21,38.08055,-122.77846000000000,FALSE,Spaletta Fire,,2017-07-12T16:15:00Z
919,35.0,2017,TRUE,Riverside,33,33.993160000000000,-117.48405,FALSE,Jurupa Fire,,2017-07-04T15:20:00Z
920,35.0,2017,TRUE,Sacramento,34,38.458220000000000,-120.92162000000000,FALSE,Latrobe Fire,,2017-06-27T07:39:00Z
921,35.0,2017,TRUE,Kern,15,35.373510000000000,-118.84134000000000,FALSE,Breckenridge Fire,,2017-06-09T04:53:00Z
922,35.0,2017,TRUE,Riverside,33,33.96419,-117.20507000000000,FALSE,Smiley Fire,,2017-05-21T16:12:00Z
923,34.0,2017,TRUE,San Bernardino,36,34.21829,-117.40625,FALSE,Meyers Fire,,2017-12-05T13:28:00Z
924,34.0,2017,TRUE,Riverside,33,33.73547,-117.33364000000000,FALSE,Ellie Fire,,2017-09-10T13:49:00Z
925,34.0,2017,TRUE,Humboldt,12,40.036970000000000,-123.64214,FALSE,Miller Fire,,2017-08-31T13:57:00Z
926,34.0,2017,TRUE,San Benito,35,36.855960000000000,-121.30983,FALSE,Valley Fire,,2017-07-04T13:21:00Z
927,33.0,2017,TRUE,Riverside,33,33.763304,-117.314994,FALSE,Christmas Fire,,2017-07-07T12:56:00Z
928,33.0,2017,TRUE,Riverside,33,33.584036,-116.97203600000000,FALSE,Valley Fire,,2017-06-13T12:00:00Z
929,33.0,2017,TRUE,Kern,15,35.60633,-118.4642,FALSE,Creek Fire ,,2017-06-04T22:11:00Z
930,32.0,2017,FALSE,Trinity,53,40.804,-123.375,FALSE,Sandy Fire,,2017-08-02T11:13:00Z
931,32.0,2017,FALSE,Trinity,53,40.79902,-123.39253000000000,FALSE,Sandy Fire,,2017-08-02T08:30:00Z
932,32.0,2017,TRUE,Riverside,33,33.626130000000000,-117.07975,FALSE,Washington Fire,,2017-07-13T10:28:00Z
933,32.0,2017,TRUE,Monterey,27,35.90092,-120.93371,TRUE,Shore Fire,,2017-06-16T15:49:00Z
934,32.0,2017,TRUE,Monterey,27,35.902149,-120.98368400000000,FALSE,Pleyto Fire,,2017-06-11T18:12:00Z
935,31.0,2017,TRUE,Monterey,27,36.5858,-121.80377,FALSE,York Fire,,2017-10-15T14:55:00Z
936,31.0,2017,TRUE,Fresno,10,36.099681,-120.443545,FALSE,Juniper Fire,,2017-08-23T13:28:00Z
937,31.0,2017,TRUE,Kern,15,35.60001,-118.4683,FALSE,Hub Fire,,2017-05-12T05:05:00Z
938,30.0,2017,FALSE,Los Angeles,19,34.52055,-118.62882000000000,FALSE,Castaic Fire,,2017-08-31T16:32:00Z
939,30.0,2017,TRUE,Humboldt,12,40.27582,-123.64281000000000,FALSE,Blocksburg Fire,,2017-08-03T16:41:00Z
940,30.0,2017,TRUE,Riverside,33,33.968960000000000,-117.25411000000000,FALSE,Timber Fire,,2017-07-03T19:31:00Z
941,29.0,2017,FALSE,El Dorado,9,38.77921,-120.46234,FALSE,Ice Fire,,2017-10-10T15:36:00Z
942,29.0,2017,TRUE,Tehama,52,40.29118,-122.42606,FALSE,Benson Fire,,2017-07-08T18:58:00Z
943,28.0,2017,TRUE,Butte,4,39.8255,-121.7127,FALSE,32 Fire,,2017-09-25T11:03:00Z
944,28.0,2017,TRUE,Modoc,25,41.4844,-120.36659000000000,FALSE,4-4 Fire,,2017-08-30T11:38:00Z
945,28.0,2017,TRUE,Del Norte,8,41.93323,-124.19629000000000,FALSE,Shore Fire,,2017-06-26T21:30:00Z
946,28.0,2017,TRUE,Riverside,33,33.79925,-117.11659000000000,FALSE,Nuevo Fire,,2017-06-15T15:51:00Z
947,27.0,2017,TRUE,Modoc,25,41.644690000000000,-120.31814000000000,TRUE,4-10 Fire,,2017-08-30T14:50:00Z
948,27.0,2017,TRUE,Riverside,33,33.82165,-116.96079000000000,FALSE,Vernon Fire,,2017-06-03T12:09:00Z
949,26.0,2017,TRUE,Yuba,58,39.03168,-121.40947,FALSE,Jasper Fire,,2017-09-26T15:20:00Z
950,26.0,2017,TRUE,Riverside,33,33.71025,-117.31924,FALSE,Trellis Fire,,2017-06-18T16:03:00Z
951,26.0,2017,TRUE,Riverside,33,33.94788,-116.59719,FALSE,Fairview Fire,,2017-06-01T16:12:00Z
952,25.0,2017,TRUE,San Diego,37,33.18716,-116.50897000000000,FALSE,Wilson Fire,,2017-10-15T14:05:00Z
953,25.0,2017,TRUE,San Luis Obispo,40,35.76343,-121.04445,FALSE,Cove Fire,,2017-09-23T15:40:00Z
954,25.0,2017,TRUE,San Diego,37,32.59252,-116.61609000000000,FALSE,Border 9 Fire,,2017-09-07T15:41:00Z
955,25.0,2017,TRUE,Shasta,45,40.719230000000000,-122.02525,FALSE,Hopper Fire,,2017-09-01T11:21:00Z
956,25.0,2017,TRUE,San Diego,37,32.7789,-116.8516,FALSE,Sloane Fire,,2017-06-27T09:38:00Z
957,25.0,2017,TRUE,Madera,20,37.02081,-119.95136000000000,FALSE,Road Fire,,2017-06-18T14:04:00Z
958,25.0,2017,TRUE,Los Angeles,19,34.29931,-118.37539,FALSE,5 Fire,,2017-06-03T15:39:00Z
959,25.0,2017,TRUE,San Diego,37,32.679,-116.29296000000000,FALSE,Ribbonwood Fire,,2017-05-24T15:30:00Z
960,23.0,2017,TRUE,Riverside,33,33.50488,-117.02132000000000,FALSE,Portola Fire,,2017-10-10T14:57:00Z
961,22.0,2017,FALSE,Alameda,1,37.77982,-122.169,FALSE,Edwards Fire,,2017-09-26T12:22:00Z
962,22.0,2017,TRUE,Calaveras,5,38.20176,-120.67848000000000,FALSE,Gold Fire,,2017-07-05T16:56:00Z
963,22.0,2017,TRUE,Napa,28,38.68347,-122.2654,TRUE,Refuge Fire,80.0,2017-06-13T10:18:00Z
964,21.0,2017,TRUE,San Luis Obispo,40,35.411120000000000,-120.00353,FALSE,Soda Fire,,2017-10-20T12:13:00Z
965,21.0,2017,TRUE,Lake,17,39.01748,-122.49327,FALSE,Mule Fire,,2017-09-05T14:55:00Z
966,21.0,2017,TRUE,Tulare,54,36.108580000000000,-118.81979,FALSE,Globe Fire,,2017-07-05T08:24:00Z
967,21.0,2017,TRUE,Butte,4,39.364000000000000,-121.4143,FALSE,Highway Fire,,2017-06-22T09:49:00Z
968,21.0,2017,TRUE,Shasta,45,0.0,0.0,FALSE,Platina Fire,,2017-06-13T12:47:00Z
969,21.0,2017,TRUE,San Benito,35,36.355780000000000,-120.99552,FALSE,Bitterwater Fire,,2017-05-22T04:50:00Z
970,20.0,2017,TRUE,Humboldt,12,40.88516,-123.96844000000000,TRUE,Blue Fire,,2017-10-08T16:40:00Z
971,20.0,2017,TRUE,Sonoma,49,38.51937,-123.24713,FALSE,Fort Fire,,2017-10-07T20:00:00Z
972,20.0,2017,TRUE,Tehama,52,40.20077,-122.24731000000000,FALSE,36 Fire,,2017-10-03T16:22:00Z
973,20.0,2017,TRUE,Tuolumne,55,37.659860000000000,-120.31157000000000,FALSE,Falls Fire,,2017-08-01T16:33:00Z
974,20.0,2017,FALSE,San Bernardino,36,34.139,-117.199,FALSE,Seine Fire,,2017-07-22T15:49:00Z
975,20.0,2017,TRUE,Mendocino,23,39.13207,-123.10227000000000,TRUE,Range Fire,,2017-07-17T12:37:00Z
976,20.0,2017,TRUE,Riverside,33,33.52584,-116.85226000000000,FALSE,Reed Fire,,2017-06-13T17:21:00Z
977,20.0,2017,TRUE,Contra Costa,7,37.86549,-122.2102,FALSE,Fish Fire,,2017-06-05T13:17:00Z
978,20.0,2017,TRUE,Kings,16,35.983000000000000,-119.91508,FALSE,City Fire,,2017-05-18T12:54:00Z
979,20.0,2017,TRUE,Monterey,27,35.77082,-120.92482,FALSE,Nacimiento Fire,,2017-05-14T12:00:00Z
980,19.0,2017,TRUE,Riverside,33,33.88994,-116.91023,FALSE,Longhorn Fire,,2017-12-13T15:27:00Z
981,19.0,2017,TRUE,Nevada,29,39.06414,-121.13737000000000,FALSE,Garden Fire,,2017-10-10T12:30:00Z
982,19.0,2017,TRUE,Riverside,33,33.797216,-117.12453800000000,FALSE,Nuevo Fire,,2017-08-13T13:34:00Z
983,19.0,2017,FALSE,Humboldt,12,40.39799,-123.57562,FALSE,Sway Fire,,2017-08-01T10:23:00Z
984,19.0,2017,TRUE,Stanislaus,50,37.81827,-120.65764000000000,FALSE,Willms Fire,,2017-07-18T22:39:00Z
985,19.0,2017,TRUE,Siskiyou,47,40.703775,-122.64507900000000,TRUE,King Fire,,2017-06-26T12:30:00Z
986,19.0,2017,TRUE,Kern,15,35.717040000000000,-118.30601000000000,FALSE,Fay Fire,,2017-05-01T12:44:00Z
987,18.0,2017,TRUE,Sonoma,49,38.26294,-122.71998,FALSE,Bodega Fire,,2017-08-27T13:30:00Z
988,18.0,2017,TRUE,Butte,4,39.53944,-121.54722,FALSE,Lakeland Fire,,2017-07-04T15:45:00Z
989,18.0,2017,TRUE,Fresno,10,36.61332,-120.7109,FALSE,Panoche Fire,,2017-05-28T16:16:00Z
990,18.0,2017,TRUE,Monterey,27,36.1727,-120.86682000000000,FALSE,Pine Fire,,2017-05-16T16:10:00Z
991,17.0,2017,TRUE,Mariposa,22,37.41231,-119.87465,FALSE,Ramblin Fire,,2017-10-03T11:44:00Z
992,17.0,2017,TRUE,Shasta,45,40.92602,-121.5935,TRUE,Corner Fire,20.0,2017-08-17T14:15:00Z
993,17.0,2017,TRUE,Shasta,45,40.69259,-122.17384000000000,FALSE,Sky Fire,,2017-07-29T17:29:00Z
994,17.0,2017,TRUE,San Luis Obispo,40,35.556667,-120.47400000000000,FALSE,Rocky Fire,,2017-05-20T13:11:00Z
995,17.0,2017,TRUE,Monterey,27,36.2771,-120.94328,TRUE,Lonoak Fire,,2017-05-17T15:18:00Z
996,17.0,2017,TRUE,Riverside,33,33.88466,-116.99229,FALSE,Canyon Fire,,2017-05-14T12:51:00Z
997,16.0,2017,TRUE,Kern,15,35.188,-119.2877,FALSE,Elk Fire,,2017-06-02T18:55:00Z
998,16.0,2017,TRUE,San Bernardino,36,34.04412,-116.55326000000000,FALSE,Matz Fire,,2017-05-29T01:20:00Z
999,16.0,2017,TRUE,Fresno,10,36.96642,-119.58292,FALSE,Rusty Fire,,2017-05-28T07:49:00Z
1000,15.0,2017,TRUE,Tehama,52,39.87983,-122.5415,FALSE,Paskenta Fire ,,2017-08-10T17:24:00Z
1001,15.0,2017,TRUE,Nevada,29,39.16826,-120.95498,FALSE,Greenhorn Fire,,2017-07-27T14:49:00Z
1002,15.0,2017,TRUE,Modoc,25,41.455890000000000,-120.56933000000000,FALSE,Centerville Fire,,2017-07-17T13:38:00Z
1003,15.0,2017,TRUE,Monterey,27,35.947000000000000,-120.87492000000000,FALSE,Alvarado Fire,,2017-06-28T09:30:00Z
1004,15.0,2017,TRUE,Calaveras,5,38.199060000000000,-120.83484000000000,FALSE,Lombardi Fire,,2017-05-28T15:30:00Z
1005,15.0,2017,TRUE,Riverside,33,33.56777,-116.08003000000000,FALSE,66 Fire,,2017-04-13T02:30:00Z
1006,14.0,2017,TRUE,Santa Barbara,42,34.71796,-120.27077,FALSE,Drum Fire,,2017-12-16T12:21:00Z
1007,14.0,2017,TRUE,Santa Barbara,42,34.605358,-120.414875,FALSE,Coast Fire,,2017-12-14T12:59:00Z
1008,14.0,2017,TRUE,Butte,4,39.8629,-121.6268,FALSE,Desabla Fire,,2017-07-02T13:43:00Z
1009,14.0,2017,TRUE,Monterey,27,35.80375,-120.52508,FALSE,Hog Fire,,2017-06-09T16:15:00Z
1010,14.0,2017,TRUE,Riverside,33,33.97155,-117.44148,FALSE,Moraga Fire,,2017-05-18T17:25:00Z
1011,13.0,2017,TRUE,Stanislaus,50,37.89532,-120.84748,FALSE,Milton Fire,,2017-10-18T12:53:00Z
1012,13.0,2017,TRUE,El Dorado,9,38.69775,-120.73757000000000,FALSE,Woodland Fire,,2017-07-25T14:13:00Z
1013,13.0,2017,TRUE,El Dorado,9,38.67474,-121.06088000000000,FALSE,Rosado Fire,,2017-07-12T13:51:00Z
1014,13.0,2017,FALSE,San Bernardino,36,34.304722,-117.3125,FALSE,Silver Fire,,2017-07-04T13:15:00Z
1015,12.0,2017,TRUE,Butte,4,39.44257,-121.60683,FALSE,Pacific Fire,,2017-09-12T17:24:00Z
1016,12.0,2017,TRUE,San Diego,37,0.0,0.0,FALSE,Dehesa Fire,,2017-06-04T11:04:00Z
1017,12.0,2017,TRUE,San Luis Obispo,40,35.6879,-120.3317,FALSE,Shandon Fire,,2017-05-07T16:41:00Z
1018,12.0,2017,TRUE,Riverside,33,33.7866,-117.5048,FALSE,Jameson Fire,,2017-04-30T19:43:00Z
1019,12.0,2017,TRUE,Merced,24,37.21812,-121.07761,FALSE,Taglio Fire,,1969-12-31T16:00:00Z
1020,11.0,2017,TRUE,Sonoma,49,38.702890000000000,-122.90217,FALSE,Independence Fire,,2017-07-31T23:17:00Z
1021,11.0,2017,TRUE,Riverside,33,33.913089,-117.09623300000000,FALSE,Lisa Fire,,2017-07-02T13:04:00Z
1022,10.0,2017,TRUE,Tehama,52,40.247890000000000,-122.255,FALSE,Freeway Fire,,2017-10-08T12:15:00Z
1023,10.0,2017,TRUE,Mariposa,22,37.768880000000000,-120.15846,FALSE,Dexter Fire,,2017-09-20T14:53:00Z
1024,10.0,2017,TRUE,Fresno,10,37.10067,-119.32109000000000,FALSE,Shaver Fire,,2017-09-11T10:00:00Z
1025,10.0,2017,TRUE,Amador,3,38.34421,-120.72274000000000,FALSE,Sandra Fire,,2017-08-28T17:06:00Z
1026,10.0,2017,FALSE,Los Angeles,19,34.23925,-117.85182000000000,FALSE,Rincon Fire,,2017-08-03T16:21:00Z
1027,10.0,2017,TRUE,Nevada,29,39.36902,-120.97586000000000,FALSE,Grizzly Fire,,2017-07-21T16:50:00Z
1028,10.0,2017,TRUE,Shasta,45,40.48972,-122.38619000000000,TRUE,North Fire,,2017-07-15T18:10:00Z
1029,10.0,2017,TRUE,Riverside,33,33.77896,-117.24091000000000,FALSE,Navajo Fire,,2017-07-13T14:14:00Z
1030,10.0,2017,TRUE,Butte,4,39.50475,-121.33785,TRUE,Rebie Fire,,2017-07-12T13:55:00Z
1031,10.0,2017,TRUE,Riverside,33,33.91806,-116.99321,FALSE,Canyon Fire,,2017-07-03T13:34:00Z
1032,10.0,2017,TRUE,Nevada,29,39.08382,-121.06656000000000,FALSE,Brewer Fire,,2017-07-02T12:41:00Z
1033,10.0,2017,TRUE,Riverside,33,33.90965,-116.9669,FALSE,Lambs Fire,,2017-06-18T12:28:00Z
1034,10.0,2017,TRUE,Riverside,33,117.138741,33.939428,FALSE,Springs Fire,,2017-06-16T14:51:00Z
1035,10.0,2017,TRUE,Kern,15,35.564124,-118.79651300000000,FALSE,Pine Fire,,2017-06-05T14:02:00Z
1036,10.0,2017,TRUE,Riverside,33,33.87107,-116.88097000000000,FALSE,Shirleon Fire ,,2017-06-04T16:48:00Z
1037,10.0,2017,TRUE,Yuba,58,39.23205,-121.376,FALSE,Twenty Fire,,2017-05-29T15:31:00Z
1038,10.0,2017,TRUE,Kern,15,34.87128,-118.35296000000000,FALSE,Champagne Fire,,2017-05-28T10:59:00Z
1039,10.0,2017,TRUE,Riverside,33,33.94673,-117.17773000000000,FALSE,Moreno Fire,,2017-05-23T13:13:00Z
1040,10.0,2017,TRUE,Monterey,27,36.44141,-121.34695,FALSE,Soledad Fire,,2017-04-24T12:06:00Z
1041,0.0,2017,TRUE,Sonoma,49,38.36685,-122.64001,TRUE,Pressley Fire (Central LNU Complex),,2017-10-09T01:30:00Z
1042,0.0,2017,TRUE,Napa,28,38.318020000000000,-122.39052,TRUE,Partrick Fire (Central LNU Complex),,2017-10-08T23:48:00Z
