,Name,County,County IDs,Latitude,Longitude,Started,Year,Acres Burned,Cal Fire Incident,Major Incident
0,Rim Fire,Tuolumne,55,37.86,-120.09,2013-08-17 15:25:00+00:00,2013,257314,True,False
1,Powerhouse Fire,Los Angeles,19,34.59,-118.42,2013-05-30 15:28:00+00:00,2013,30274,True,False
2,Mountain Fire,Riverside,33,33.71,-116.73,2013-07-15 13:43:00+00:00,2013,27531,True,False
3,American Fire,Placer,31,39.12,-120.65,2013-08-10 16:30:00+00:00,2013,27440,False,False
4,Springs Fire,Ventura,56,0.0,0.0,2013-05-02 07:01:00+00:00,2013,24251,True,True
5,Aspen Fire,Fresno,10,37.28,-119.32,2013-07-22 22:15:00+00:00,2013,22992,False,False
6,Silver Fire,Riverside,33,33.86,-116.9,2013-08-07 14:05:00+00:00,2013,20292,True,True
7,Salmon River Complex,Siskiyou,47,41.32,-123.18,2013-07-31 22:00:00+00:00,2013,14754,False,False
8,Corral Complex,Humboldt,12,41.03,-123.49,2013-08-10 11:40:00+00:00,2013,12503,False,False
9,Deer Fire,Tehama,52,40.04,-121.85,2013-08-23 14:15:00+00:00,2013,11429,True,True
10,Clover Fire,Shasta,45,40.5,-122.54,2013-09-09 12:32:00+00:00,2013,8073,True,True
11,Chariot Fire,San Diego,37,32.95,-116.47,2013-07-06 12:55:00+00:00,2013,7055,True,True
12,Panther Fire,Tehama,52,40.19,-121.6,2013-05-01 09:12:00+00:00,2013,6965,True,True
13,Grand Fire,Kern,15,34.79,-118.94,2013-05-15 12:50:00+00:00,2013,4346,True,True
14,Grand Fire,Ventura,56,34.79,-118.94,2013-05-15 12:50:00+00:00,2013,4346,True,True
15,McCabe Fire,Sonoma,49,38.82,-122.85,2013-11-22 02:04:00+00:00,2013,3505,True,True
16,Summit Fire,Riverside,33,34.29,-116.94,2013-05-01 12:38:00+00:00,2013,3166,True,True
17,Morgan Fire,Contra Costa,7,37.91,-121.88,2013-09-08 13:08:00+00:00,2013,3111,True,True
18,San Felipe Fire,San Diego,37,33.12,-116.53,2013-05-23 12:20:00+00:00,2013,2781,True,True
19,Swedes Fire,Butte,4,39.45,-121.38,2013-08-16 16:37:00+00:00,2013,2462,True,True
20,DeLuz Fire,San Diego,37,33.34,-117.31,2013-10-05 12:45:00+00:00,2013,2236,False,False
21,Fish Fire,Tulare,54,36.21,-118.44,2013-08-24 14:31:00+00:00,2013,2060,False,False
22,White Fire,Santa Barbara,42,34.55,-119.82,2013-05-27 14:45:00+00:00,2013,1984,False,False
23,Carstens Fire,Mariposa,22,37.58,-119.91,2013-06-16 14:12:00+00:00,2013,1708,True,True
24,Falls Fire,Riverside,33,33.62,-117.4,2013-08-05 10:10:00+00:00,2013,1383,True,False
25,General Fire,San Diego,37,33.04,-116.52,2013-05-26 12:04:00+00:00,2013,1271,True,True
26,Power Fire,Tuolumne,55,38.25,-120.03,2013-08-05 06:00:00+00:00,2013,1070,False,False
27,Pfeiffer Fire,Monterey,27,0.0,0.0,2013-12-16 00:20:00+00:00,2013,917,False,False
28,Shirley Fire,Kern,15,35.71,-118.59,2013-08-18 23:12:00+00:00,2013,794,False,False
29,Rancho Fire,Kern,15,34.88,-118.92,2013-07-19 12:00:00+00:00,2013,712,True,True
30,Lake Fire,Los Angeles,19,34.49,-118.61,2013-05-17 13:23:00+00:00,2013,712,True,False
31,Water Fire,Kern,15,34.9,-118.93,2013-07-23 09:15:00+00:00,2013,612,True,False
32,Kyburz Fire,El Dorado,9,38.77,-120.3,2013-07-08 12:45:00+00:00,2013,572,False,False
33,Mills Fire,San Bernardino,36,34.07,-117.05,2013-06-28 14:30:00+00:00,2013,534,True,True
34,Plumas Lightning Complex (Hough),Plumas,32,40.01,-120.76,2013-08-18 18:30:00+00:00,2013,513,False,False
35,Gorgonio Fire,Riverside,33,33.89,-116.86,2013-05-04 11:43:00+00:00,2013,510,True,False
36,Fox Fire (formally 3-7 Fire),Modoc,25,41.24,-121.03,2013-07-03 22:56:00+00:00,2013,502,True,False
37,Branch Fire,San Luis Obispo,40,35.16,-120.05,2013-06-01 17:27:00+00:00,2013,500,False,False
38,Kirker Fire,Contra Costa,7,37.97,-121.91,2013-07-01 13:19:00+00:00,2013,492,True,False
39,Rolling Fire,Madera,20,37.02,-119.78,2013-06-16 18:17:00+00:00,2013,482,True,True
40,Gobblers Fire,San Bernardino,36,34.3,-117.6,2013-08-20 13:32:00+00:00,2013,413,False,False
41,River Fire,Inyo,14,36.6,-118.02,2013-02-24 08:16:00+00:00,2013,406,True,True
42,Putah Fire,Napa,28,38.63,-122.29,2013-10-03 20:33:00+00:00,2013,376,True,True
43,Tres Pinos Fire,San Benito,35,37.16,-120.94,2013-05-03 11:42:00+00:00,2013,354,True,False
44,Jurupa Fire,Riverside,33,0.0,0.0,2013-02-28 16:43:00+00:00,2013,311,True,False
45,Summit Fire,Butte,4,39.44,-121.5,2013-10-04 17:37:00+00:00,2013,305,True,True
46,Shelton Fire,San Joaquin,39,38.05,-120.9,2013-05-30 11:20:00+00:00,2013,303,True,False
47,Lone Fire,Butte,4,39.43,-121.58,2013-06-03 13:49:00+00:00,2013,298,True,True
48,Becks Fire,Lake,17,0.0,0.0,2013-01-22 11:08:00+00:00,2013,296,True,False
49,Concord Fire,Contra Costa,7,39.9,-121.74,2013-07-01 15:41:00+00:00,2013,274,True,False
50,Gold Fire,Madera,20,37.12,-119.64,2013-04-30 12:59:00+00:00,2013,274,True,False
51,Madre Fire,Los Angeles,19,34.15,-117.91,2013-09-23 18:00:00+00:00,2013,268,False,False
52,Lyon Fire,San Diego,37,32.71,-116.75,2013-09-09 13:09:00+00:00,2013,263,True,True
53,Sharp Fire,San Bernardino,36,34.35,-117.62,2013-08-08 12:15:00+00:00,2013,243,False,False
54,Vasco Fire,Alameda,1,37.78,-121.74,2013-06-08 10:16:00+00:00,2013,240,True,False
55,PFE Fire,Placer,31,38.73,-121.38,2013-06-13 11:28:00+00:00,2013,237,True,False
56,Daves Fire,Glenn,11,0.0,0.0,2013-06-12 15:17:00+00:00,2013,226,False,False
57,306 Fire,Glenn,11,39.51,-122.56,2013-05-01 19:00:00+00:00,2013,217,True,True
58,Tassajara Fire,Monterey,27,0.0,0.0,2013-07-17 13:23:00+00:00,2013,213,False,False
59,Sierra Fire,San Bernardino,36,34.2,-117.42,2013-09-24 15:51:00+00:00,2013,200,False,False
60,Vina Fire,Tehama,52,40.01,-122.08,2013-07-04 07:30:00+00:00,2013,200,True,False
61,Burney Lightning Series (Warner Fire),Shasta,45,40.54,-121.38,2013-08-19 17:48:00+00:00,2013,196,True,True
62,Paskenta Fire,Tehama,52,39.96,-122.33,2013-07-19 13:32:00+00:00,2013,195,True,False
63,Silverado Fire,Napa,28,38.38,-122.31,2013-11-21 21:39:00+00:00,2013,190,True,True
64,Olive Fire,Santa Barbara,42,34.61,-120.07,2013-05-28 15:24:00+00:00,2013,170,True,False
65,Capay Fire,Yolo,57,38.67,-122.09,2013-11-04 11:41:00+00:00,2013,163,True,False
66,50 Fire,El Dorado,9,38.64,-121.08,2013-07-19 14:12:00+00:00,2013,163,True,False
67,50 Fire,Sacramento,34,38.64,-121.08,2013-07-19 14:12:00+00:00,2013,163,True,False
68,Crane Fire,Sonoma,49,38.35,-122.65,2013-10-04 12:25:00+00:00,2013,159,True,False
69,Lakeville Fire,Sonoma,49,38.18,-122.51,2013-07-26 13:45:00+00:00,2013,158,True,False
70,Highland Fire,Alameda,1,0.0,0.0,2013-10-04 07:35:00+00:00,2013,150,True,False
71,Redlands Fire,Riverside,33,33.99,-117.16,2013-07-16 17:48:00+00:00,2013,150,True,False
72,Diablo Fire,Stanislaus,50,37.44,-121.2,2013-07-12 15:35:00+00:00,2013,150,True,False
73,George Fire,Fresno,10,36.72,-119.22,2013-06-25 13:36:00+00:00,2013,150,True,False
74,Neal Fire,Butte,4,0.0,0.0,2013-05-22 00:56:00+00:00,2013,150,True,True
75,Magic Fire,Los Angeles,19,34.42,-118.59,2013-05-28 11:30:00+00:00,2013,149,True,False
76,Angora Fire,Tulare,54,36.26,-118.46,2013-09-08 11:53:00+00:00,2013,134,False,False
77,Yellow Fire,Sonoma,49,38.64,-122.66,2013-05-01 02:01:00+00:00,2013,125,True,True
78,California Fire,Solano,48,38.09,-122.14,2013-06-18 15:18:00+00:00,2013,124,True,False
79,152 Fire,Merced,24,37.04,-121.01,2013-06-04 15:42:00+00:00,2013,124,True,False
80,Smiley Fire,Riverside,33,33.96,-117.19,2013-05-25 14:59:00+00:00,2013,124,True,False
81,Cantwell Fire,Lake,17,38.88,-122.57,2013-11-08 13:42:00+00:00,2013,120,True,True
82,Union Fire,El Dorado,9,38.68,-120.84,2013-08-16 13:55:00+00:00,2013,116,True,True
83,Cleghorn Fire,San Bernardino,36,34.29,-117.45,2013-08-17 17:25:00+00:00,2013,110,False,False
84,Clinton Fire,Fresno,10,36.77,-119.63,2013-06-13 11:54:00+00:00,2013,108,True,False
85,Freeman Fire,Monterey,27,36.15,-120.9,2013-06-29 14:09:00+00:00,2013,105,True,False
86,Bee Fire,Los Angeles,19,0.0,0.0,2013-08-09 17:15:00+00:00,2013,100,False,False
87,Murphy Fire,Tuolumne,55,37.92,-120.33,2013-06-02 13:30:00+00:00,2013,100,True,False
88,Border Fire,San Diego,37,32.56,-116.9,2013-05-22 16:14:00+00:00,2013,100,True,False
89,Highland Fire,Mendocino,23,38.93,-122.97,2013-09-28 13:57:00+00:00,2013,98,True,False
90,Davis Creek Complex,Modoc,25,41.73,-120.38,2013-09-05 15:57:00+00:00,2013,97,False,False
91,Little Fire,San Bernardino,36,33.64,-116.71,2013-08-24 15:09:00+00:00,2013,97,False,False
92,Coyote Fire,Lassen,18,40.89,-120.96,2013-08-09 15:51:00+00:00,2013,97,True,False
93,Roadrunner Fire,Amador,3,38.28,-120.97,2013-06-12 16:43:00+00:00,2013,96,True,False
94,Creek Fire,San Luis Obispo,40,35.44,-120.84,2013-09-24 03:20:00+00:00,2013,94,True,False
95,Branch Fire,Butte,4,39.66,-121.5,2013-08-01 16:01:00+00:00,2013,92,True,True
96,Lilly 2 Fire,Madera,20,37.19,-119.79,2013-05-19 15:07:00+00:00,2013,91,True,True
97,Water Fire,Riverside,33,33.96,-116.65,2013-05-21 14:16:00+00:00,2013,90,True,False
98,Adelaida Fire,San Luis Obispo,40,35.63,-120.83,2013-07-07 13:16:00+00:00,2013,85,True,False
99,Retek Fire,Mendocino,23,39.04,-123.15,2013-11-22 10:06:00+00:00,2013,82,True,False
100,Centerville Fire,Butte,4,39.73,-121.71,2013-08-31 17:23:00+00:00,2013,80,True,True
101,Butte Fire,Fresno,10,0.0,0.0,2013-04-09 12:35:00+00:00,2013,80,True,False
102,Tehama Fire,Tehama,52,0.0,0.0,2013-09-15 17:39:00+00:00,2013,75,True,False
103,Silverwood Fire,San Bernardino,36,34.32,-117.35,2013-07-25 15:09:00+00:00,2013,75,True,False
104,Revis Fire,Madera,20,37.17,-119.76,2013-06-12 16:40:00+00:00,2013,75,True,True
105,Lytle Fire,San Bernardino,36,34.18,-117.44,2013-05-13 13:30:00+00:00,2013,75,True,True
106,Silverado Fire,Napa,28,38.44,-122.35,2013-04-30 23:44:00+00:00,2013,75,True,False
107,Liveoak Fire,San Bernardino,36,34.0,-117.11,2013-09-11 16:57:00+00:00,2013,73,True,False
108,McGanney Fire,Yuba,58,39.21,-121.32,2013-07-08 09:59:00+00:00,2013,73,True,False
109,Cedar Fire,Butte,4,0.0,0.0,2013-05-01 04:16:00+00:00,2013,72,True,True
110,Double Fire,Lake,17,39.01,-122.49,2013-08-16 17:57:00+00:00,2013,70,True,True
111,Rail Fire,Modoc,25,41.57,-120.96,2013-09-07 17:30:00+00:00,2013,68,False,False
112,Wheeler Fire,Ventura,56,34.38,-119.13,2013-11-14 11:05:00+00:00,2013,64,True,False
113,Tram Fire,Riverside,33,38.84,-116.61,2013-08-06 13:39:00+00:00,2013,60,False,False
114,Relay Fire,Riverside,33,33.91,-117.0,2013-08-04 16:29:00+00:00,2013,60,True,False
115,Tyler Fire,Nevada,29,39.33,-121.11,2013-08-31 14:42:00+00:00,2013,52,True,False
116,Toro Fire,San Luis Obispo,40,35.46,-120.75,2013-11-08 10:30:00+00:00,2013,51,True,True
117,Bruner Fire,Lake,17,39.04,-122.77,2013-11-23 12:04:00+00:00,2013,50,True,False
118,Cottonwood Fire,Siskiyou,47,41.92,-122.58,2013-08-15 14:40:00+00:00,2013,50,True,False
119,Uvas Fire,Santa Clara,43,37.14,-121.78,2013-07-12 13:09:00+00:00,2013,50,True,False
120,Grant Fire,Alameda,1,37.74,-121.59,2013-07-04 10:00:00+00:00,2013,50,True,False
121,Homestead Fire,San Luis Obispo,40,35.51,-120.64,2013-05-25 17:35:00+00:00,2013,50,True,False
122,Bridges Fire,Calaveras,5,38.06,-120.45,2013-08-17 10:11:00+00:00,2013,46,True,True
123,Sierra Fire,Fresno,10,37.03,-119.46,2013-06-17 14:41:00+00:00,2013,46,True,False
124,Pratt Fire,Mendocino,23,38.98,-123.07,2013-07-23 13:29:00+00:00,2013,45,True,False
125,Happy Camp Fire,Ventura,56,0.0,0.0,2013-12-10 02:26:00+00:00,2013,44,False,False
126,Fiddler Fire,Shasta,45,40.37,-122.73,2013-07-09 11:59:00+00:00,2013,43,True,False
127,Viper Fire,Riverside,33,33.97,-117.13,2013-06-08 15:37:00+00:00,2013,42,True,False
128,Chestnut Fire,San Mateo,41,37.67,-122.43,2013-09-07 13:55:00+00:00,2013,41,True,False
129,Grant Fire,Santa Clara,43,37.34,-121.72,2013-12-31 05:30:00+00:00,2013,40,True,False
130,Baker Fire,Orange,30,33.77,-117.66,2013-10-06 10:52:00+00:00,2013,40,True,False
131,Valley Fire,San Diego,37,0.0,0.0,2013-09-26 17:29:00+00:00,2013,40,True,False
132,Pierce Fire,Riverside,33,33.57,-116.11,2013-08-16 13:31:00+00:00,2013,40,True,False
133,Trout Fire,Siskiyou,47,0.0,0.0,2013-07-31 15:25:00+00:00,2013,40,True,False
134,Heacock Fire,Riverside,33,33.96,-117.25,2013-07-19 16:21:00+00:00,2013,40,True,False
135,Palmyrita Fire,Riverside,33,34.0,-117.3,2013-06-14 13:47:00+00:00,2013,40,True,False
136,54 Fire,Riverside,33,33.66,-116.16,2013-05-16 13:48:00+00:00,2013,40,True,True
137,Empire Fire,El Dorado,9,38.9,-120.85,2013-08-24 14:54:00+00:00,2013,38,True,False
138,Indian Fire,Lake,17,39.16,-122.59,2013-08-07 12:35:00+00:00,2013,38,True,False
139,Fallon Fire,Alameda,1,37.74,-121.86,2013-07-06 13:09:00+00:00,2013,38,True,False
140,Michelle Fire,Fresno,10,36.76,-119.56,2013-06-13 15:54:00+00:00,2013,35,True,False
141,Cottontail Fire,San Luis Obispo,40,35.5,-120.91,2013-05-20 15:45:00+00:00,2013,35,True,False
142,Honey Fire,Shasta,45,0.0,0.0,2013-08-04 18:00:00+00:00,2013,34,True,False
143,Dersch Fire,Shasta,45,40.48,-122.14,2013-11-07 16:10:00+00:00,2013,33,True,False
144,Chuckwagon Fire,Calaveras,5,37.97,-120.7,2013-07-22 12:34:00+00:00,2013,31,True,False
145,Lakeshore Fire,Lake,17,38.98,-122.68,2013-09-15 19:45:00+00:00,2013,30,True,True
146,Lake Fire,Lake,17,38.99,-122.7,2013-06-05 16:05:00+00:00,2013,30,True,False
147,Fawnskin Fire,San Bernardino,36,34.29,-116.94,2013-04-20 17:30:00+00:00,2013,30,False,False
148,Sonoma-Lake-Napa Unit Lightning Fires,Sonoma,49,38.42,-122.04,2013-06-10 00:46:00+00:00,2013,28,True,True
149,Sonoma-Lake-Napa Unit Lightning Fires,Solano,48,38.42,-122.04,2013-06-10 00:46:00+00:00,2013,28,True,True
150,Sonoma-Lake-Napa Unit Lightning Fires,Lake,17,38.42,-122.04,2013-06-10 00:46:00+00:00,2013,28,True,True
151,Sonoma-Lake-Napa Unit Lightning Fires,Colusa,6,38.42,-122.04,2013-06-10 00:46:00+00:00,2013,28,True,True
152,Cloverdale Fire,Shasta,45,40.47,-122.48,2013-08-14 15:37:00+00:00,2013,27,True,False
153,Flume Fire,San Diego,37,32.61,-116.71,2013-07-28 09:43:00+00:00,2013,25,True,False
154,Mount Fire,Lake,17,38.98,-122.82,2013-06-20 14:29:00+00:00,2013,25,True,False
155,Cherry Fire,Riverside,33,33.96,-116.91,2013-05-20 13:47:00+00:00,2013,25,True,False
156,Dam Fire,Lake,17,38.93,-122.58,2013-11-23 14:17:00+00:00,2013,23,True,False
157,Refuse Fire,Mendocino,23,0.0,0.0,2013-12-30 11:00:00+00:00,2013,15,True,False
158,Gilman Fire,Riverside,33,33.95,-117.09,2013-07-19 17:31:00+00:00,2013,15,True,False
159,Ranger Fire,Madera,20,0.0,0.0,2013-05-12 13:02:00+00:00,2013,15,True,False
160,Orleans Complex,Humboldt,12,41.33,-123.38,2013-08-03 08:00:00+00:00,2013,0,False,False
161,Hathaway Fire,Riverside,33,34.0,-116.84,2013-06-09 12:30:00+00:00,2013,0,False,False
162,King Fire,El Dorado,9,38.81,-120.63,2014-09-13 16:32:00+00:00,2014,97717,True,True
163,July Complex,Siskiyou,47,0.0,0.0,2014-08-02 09:00:00+00:00,2014,50042,False,False
164,Bald Fire,Shasta,45,40.9,-121.37,2014-07-30 20:15:00+00:00,2014,39736,True,False
165,Oregon Gulch Fire (part of the Beaver Complex),Siskiyou,47,42.05,-122.34,2014-07-30 23:00:00+00:00,2014,35302,True,False
166,Beaver Fire,Siskiyou,47,0.0,0.0,2014-07-30 00:00:00+00:00,2014,32496,False,False
167,Eiler Fire,Shasta,45,40.72,-121.56,2014-07-31 18:04:00+00:00,2014,32416,True,True
168,Pulgas Fire,San Diego,37,0.0,0.0,2014-05-15 14:45:00+00:00,2014,14416,False,False
169,French Fire,Madera,20,0.0,0.0,2014-07-28 05:45:00+00:00,2014,13838,False,False
170,Day Fire,Modoc,25,41.13,-121.21,2014-07-30 19:01:00+00:00,2014,13153,True,True
171,Bully Fire,Shasta,45,40.43,-122.75,2014-07-11 15:37:00+00:00,2014,12661,True,True
172,Lodge Lightning Complex,Mendocino,23,0.0,0.0,2014-07-30 06:27:00+00:00,2014,12536,True,True
173,Monticello Fire,Yolo,57,38.51,-122.1,2014-07-04 21:32:00+00:00,2014,6488,True,True
174,Coffee Fire,Shasta,45,41.14,-122.81,2014-07-30 20:30:00+00:00,2014,6258,False,False
175,Little Deer Fire,Siskiyou,47,41.68,-122.13,2014-07-31 17:45:00+00:00,2014,5503,True,False
176,Tomahawk Fire,San Diego,37,33.35,-117.28,2014-05-14 09:45:00+00:00,2014,5367,False,True
177,Stoney Fire,Monterey,27,0.0,0.0,2014-06-19 15:14:00+00:00,2014,4840,False,False
178,Meadow Fire,Mariposa,22,0.0,0.0,2014-08-16 00:00:00+00:00,2014,4772,False,False
179,El Portal Fire,Mariposa,22,0.0,0.0,2014-07-26 17:00:00+00:00,2014,4689,False,False
180,Butts Fire,Napa,28,38.66,-122.45,2014-07-01 12:08:00+00:00,2014,4300,True,True
181,Butts Fire,Lake,17,38.66,-122.45,2014-07-01 12:08:00+00:00,2014,4300,True,True
182,Sand Fire,Amador,3,38.57,-120.78,2014-07-25 16:34:00+00:00,2014,4240,True,True
183,Sand Fire,El Dorado,9,38.57,-120.78,2014-07-25 16:34:00+00:00,2014,4240,True,True
184,Way Fire,Kern,15,35.72,-118.47,2014-08-18 14:30:00+00:00,2014,4045,False,False
185,Shirley Fire,Kern,15,35.71,-118.56,2014-06-13 17:00:00+00:00,2014,3895,False,False
186,Etiwanda Fire,San Bernardino,36,34.17,-117.55,2014-04-30 08:00:00+00:00,2014,2143,True,True
187,Cocos Fire,San Diego,37,33.11,-117.16,2014-05-14 16:00:00+00:00,2014,1995,True,True
188,Colby Fire,Los Angeles,19,34.17,-117.88,2014-01-16 05:50:00+00:00,2014,1952,False,False
189,Nicolls Fire ,Kern,15,35.64,-118.15,2014-07-11 13:46:00+00:00,2014,1680,False,False
190,Modoc Lightning Complex,Modoc,25,41.89,-120.79,2014-07-01 19:00:00+00:00,2014,1651,False,False
191,Bernardo Fire,San Diego,37,33.0,-117.13,2014-05-13 11:00:00+00:00,2014,1548,True,True
192,Gulch Fire,Modoc,25,41.49,-120.9,2014-07-03 15:46:00+00:00,2014,1469,True,True
193,San Mateo Fire,San Diego,37,33.42,-117.55,2014-05-16 11:24:00+00:00,2014,1457,False,False
194,Gulch Fire,Shasta,45,40.71,-122.17,2014-09-10 00:30:00+00:00,2014,1375,True,True
195,Dark Hole Fire,Mariposa,22,0.0,0.0,2014-07-17 01:00:00+00:00,2014,1080,False,False
196,Silverado Fire,Orange,30,33.75,-117.6,2014-09-12 10:30:00+00:00,2014,968,False,False
197,Campbell Fire,Tehama,52,40.13,-121.79,2014-01-02 20:00:00+00:00,2014,865,False,False
198,Hunters Fire,Mariposa,22,0.0,0.0,2014-05-26 15:33:00+00:00,2014,677,True,True
199,Miguelito Fire,Santa Barbara,42,34.61,-120.45,2014-05-13 14:00:00+00:00,2014,632,True,True
200,Junction Fire,Madera,20,37.34,-119.66,2014-08-18 13:50:00+00:00,2014,612,True,True
201,Poinsettia Fire,San Diego,37,33.11,-117.28,2014-05-14 10:30:00+00:00,2014,600,False,False
202,Oregon Fire,Trinity,53,40.74,-122.95,2014-08-24 16:36:00+00:00,2014,580,True,True
203,Boles Fire,Siskiyou,47,41.42,-122.37,2014-09-15 13:38:00+00:00,2014,516,True,True
204,59 Fire,Tuolumne,55,37.77,-120.45,2014-06-04 11:45:00+00:00,2014,487,True,False
205,Applegate Fire,Placer,31,0.0,0.0,2014-10-08 13:33:00+00:00,2014,459,True,True
206,Black Fire,Mendocino,23,0.0,0.0,2014-09-13 15:48:00+00:00,2014,403,True,True
207,Encinal Fire,Monterey,27,36.63,-121.48,2014-03-19 16:45:00+00:00,2014,400,True,True
208,Web Fire,Butte,4,0.0,0.0,2014-07-28 13:11:00+00:00,2014,389,True,True
209,Highway Fire,San Diego,37,33.31,-117.16,2014-05-14 13:00:00+00:00,2014,380,True,True
210,Pierce Fire,Riverside,33,0.0,0.0,2014-03-15 16:37:00+00:00,2014,350,True,False
211,Red Fire,Humboldt,12,40.88,-123.77,2014-01-04 12:00:00+00:00,2014,333,True,False
212,Courtney Fire,Madera,20,37.31,-119.6,2014-09-14 13:36:00+00:00,2014,320,True,True
213,Dog Rock Fire,Mariposa,22,37.0,40.34,2014-10-07 15:05:00+00:00,2014,311,False,False
214,Bridge Fire,Mariposa,22,0.0,0.0,2014-09-05 12:39:00+00:00,2014,300,True,True
215,Gun Club Fire,Merced,24,0.0,0.0,2014-07-24 12:06:00+00:00,2014,300,True,False
216,Tecolote Fire,Los Angeles,19,34.27,-117.87,2014-08-17 14:30:00+00:00,2014,274,False,False
217,Hetch Hetchy Fire,Tuolumne,55,37.79,-120.45,2014-06-05 13:04:00+00:00,2014,269,True,False
218,Dog Bar Fire,Nevada,29,39.11,-121.0,2014-09-13 14:07:00+00:00,2014,247,True,True
219,Tehama Fire,Tehama,52,40.01,-122.35,2014-06-13 12:23:00+00:00,2014,225,True,False
220,Banner Fire,San Diego,37,33.08,-116.58,2014-07-03 10:43:00+00:00,2014,217,True,True
221,Bald Hill 3 Fire,Humboldt,12,41.13,-123.75,2014-09-12 15:00:00+00:00,2014,210,False,False
222,Shoemaker Fire,Los Angeles,19,34.23,-117.77,2014-08-14 12:48:00+00:00,2014,190,False,False
223,Indian Fire,Lake,17,39.16,-122.6,2014-05-25 12:20:00+00:00,2014,175,True,False
224,Dry Fire,Shasta,45,40.66,-122.22,2014-07-09 13:45:00+00:00,2014,143,True,False
225,Haigh Fire,Mariposa,22,37.71,-120.2,2014-06-10 15:11:00+00:00,2014,130,True,True
226,Curie Fire,Santa Clara,43,0.0,0.0,2014-06-30 14:10:00+00:00,2014,125,True,False
227,Gun Fire,San Diego,37,32.81,-116.49,2014-03-08 12:30:00+00:00,2014,125,False,False
228,Reed Fire,Calaveras,5,120.68,38.18,2014-06-20 15:27:00+00:00,2014,120,True,False
229,Brewer Fire,Placer,31,0.0,0.0,2014-01-22 13:10:00+00:00,2014,120,True,False
230,Bridges Fire,Inyo,14,37.4,-118.35,2014-04-19 15:54:00+00:00,2014,113,True,True
231,Lake Fire,Fresno,10,36.83,-119.34,2014-01-25 06:37:00+00:00,2014,106,True,False
232,River Fire,San Diego,37,0.0,0.0,2014-05-14 12:12:00+00:00,2014,105,False,False
233,Little Fire,Modoc,25,41.51,-121.27,2014-08-12 15:00:00+00:00,2014,101,True,False
234,Saratoga Fire,Lake,17,0.0,0.0,2014-09-03 16:03:00+00:00,2014,100,True,False
235,Interstate Fire,Riverside,33,0.0,0.0,2014-09-01 14:03:00+00:00,2014,100,True,False
236,Irene Fire,El Dorado,9,38.59,-120.03,2014-09-14 09:15:00+00:00,2014,94,False,False
237,Valley Fire,Mariposa,22,0.0,0.0,2014-06-06 17:29:00+00:00,2014,90,True,True
238,Oak Fire,Calaveras,5,38.06,-120.66,2014-06-22 12:37:00+00:00,2014,85,True,True
239,Boca Fire,Nevada,29,39.39,-120.08,2014-08-18 10:00:00+00:00,2014,84,True,False
240,Casa Fire,Santa Clara,43,0.0,0.0,2014-08-28 15:10:00+00:00,2014,80,True,False
241,Marsh Fire,Contra Costa,7,37.54,-121.51,2014-07-11 21:57:00+00:00,2014,80,True,True
242,Montgomery Fire,Mariposa,22,0.0,0.0,2014-09-07 16:46:00+00:00,2014,79,False,False
243,Sabina Fire,Riverside,33,0.0,0.0,2014-07-23 10:47:00+00:00,2014,78,True,False
244,Cassel Fire,Shasta,45,40.57,-121.34,2014-07-05 18:44:00+00:00,2014,75,True,True
245,San Lucas Fire,Monterey,27,36.1,-121.12,2014-04-30 14:25:00+00:00,2014,75,True,False
246,Wildlife Fire,Butte,4,39.47,-121.61,2014-07-14 18:00:00+00:00,2014,72,True,False
247,Jackson Fire,Tuolumne,55,37.83,-120.34,2014-09-04 11:51:00+00:00,2014,70,True,False
248,Ranch Fire,Kern,15,0.0,0.0,2014-07-01 18:15:00+00:00,2014,70,False,False
249,Norman Fire,Solano,48,122.0,38.45,2014-06-12 14:29:00+00:00,2014,70,True,False
250,June Fire,Inyo,14,0.0,0.0,2014-09-16 19:07:00+00:00,2014,65,False,False
251,Nelson Fire,Mendocino,23,0.0,0.0,2014-09-21 16:13:00+00:00,2014,62,True,True
252,Honcut Fire,Butte,4,0.0,0.0,2014-01-01 10:46:00+00:00,2014,60,True,False
253,Van Buren Fire,Riverside,33,33.6,-116.2,2014-03-28 14:31:00+00:00,2014,57,True,False
254,Freeway Fire ,San Diego,37,0.0,0.0,2014-05-14 17:43:00+00:00,2014,56,True,False
255,Fiddler Fire,Shasta,45,40.39,-122.72,2014-05-14 14:00:00+00:00,2014,50,True,False
256,Bane Fire,San Bernardino,36,33.94,-117.71,2014-10-16 14:34:00+00:00,2014,48,True,False
257,Interlake Fire,San Luis Obispo,40,35.82,-121.02,2014-07-07 16:12:00+00:00,2014,47,True,False
258,Morgan Fire,Fresno,10,36.99,-119.53,2014-06-09 15:15:00+00:00,2014,40,True,True
259,Hutto Fire,Nevada,29,39.19,-121.27,2014-07-07 16:35:00+00:00,2014,38,True,False
260,McClellan Fire,Humboldt,12,0.0,0.0,2014-08-01 15:47:00+00:00,2014,37,True,False
261,Lake Fire,Stanislaus,50,0.0,0.0,2014-05-27 11:23:00+00:00,2014,37,True,False
262,Bogart Fire,Riverside,33,0.0,0.0,2014-06-06 17:32:00+00:00,2014,31,True,True
263,Siskiyou County Lightning Fires,Siskiyou,47,0.0,0.0,2014-07-29 13:00:00+00:00,2014,30,True,True
264,Bible Fire,El Dorado,9,38.61,-120.7,2014-07-09 14:34:00+00:00,2014,30,True,False
265,Jacumba Fire,San Diego,37,32.66,-116.22,2014-05-05 16:36:00+00:00,2014,29,True,False
266,Stage Coach Fire,Napa,28,38.7,-122.38,2014-09-11 15:14:00+00:00,2014,27,True,False
267,Foothill Fire ,Ventura,56,0.0,0.0,2014-09-29 19:35:00+00:00,2014,25,True,False
268,Leopard Fire,Shasta,45,40.0,29.24,2014-08-29 12:21:00+00:00,2014,25,True,False
269,Hall Fire,Fresno,10,36.74,-119.24,2014-06-11 07:30:00+00:00,2014,25,True,False
270,Cascade Fire,El Dorado,9,38.92,-120.11,2014-09-25 18:00:00+00:00,2014,20,False,False
271,Border Fire,San Diego,37,32.59,-116.9,2014-08-16 16:22:00+00:00,2014,20,True,False
272,Bridge Fire,Humboldt,12,0.0,0.0,2014-01-03 10:30:00+00:00,2014,18,True,False
273,West Fire,Trinity,53,40.41,-123.24,2014-07-01 03:45:00+00:00,2014,15,False,False
274,Iowa Fire,Placer,31,0.0,0.0,2014-07-21 14:49:00+00:00,2014,14,True,False
275,Santa Fire,Riverside,33,0.0,0.0,2014-06-04 15:18:00+00:00,2014,14,True,False
276,Pines Fire,Madera,20,37.0,18.4,2014-08-26 16:23:00+00:00,2014,10,True,False
277,South Napa Earthquake,Napa,28,0.0,0.0,2014-08-24 03:20:00+00:00,2014,6,True,False
278,Happy Camp Complex,Siskiyou,47,41.8,-123.37,2014-08-11 22:00:00+00:00,2014,0,False,False
279,Rough Fire ,Fresno,10,36.87,-118.91,2015-07-31 19:00:00+00:00,2015,151623,False,False
280,River Complex,Trinity,53,0.0,0.0,2015-07-30 22:30:00+00:00,2015,77081,False,False
281,Rocky Fire,Lake,17,38.89,-122.48,2015-07-29 15:29:00+00:00,2015,69438,True,True
282,Fork Complex,Trinity,53,0.0,0.0,2015-07-30 21:30:00+00:00,2015,36503,False,False
283,Lake Fire,San Bernardino,36,34.16,-116.89,2015-06-17 15:52:00+00:00,2015,31359,True,False
284,Gasquet Complex,Del Norte,8,0.0,0.0,2015-07-31 21:00:00+00:00,2015,30361,False,False
285,South Complex,Trinity,53,0.0,0.0,2015-07-30 16:00:00+00:00,2015,29416,False,False
286,Jerusalem Fire,Lake,17,38.81,-122.49,2015-08-09 15:34:00+00:00,2015,25118,True,True
287,Jerusalem Fire,Napa,28,38.81,-122.49,2015-08-09 15:34:00+00:00,2015,25118,True,True
288,Dodge Fire,Lassen,18,40.94,-120.11,2015-08-03 14:15:00+00:00,2015,10570,False,False
289,Nickowitz Fire,Del Norte,8,0.0,0.0,2015-08-01 23:23:00+00:00,2015,7509,False,False
290,Round Fire,Inyo,14,0.0,0.0,2015-02-06 14:07:00+00:00,2015,7000,True,True
291,Round Fire,Mono,26,0.0,0.0,2015-02-06 14:07:00+00:00,2015,7000,True,True
292,Cabin Fire,Tulare,54,36.24,-118.54,2015-07-19 08:00:00+00:00,2015,6980,False,False
293,Willow Fire,Madera,20,37.28,-119.5,2015-07-25 14:30:00+00:00,2015,5702,True,False
294,Humboldt Lightning Fires,Humboldt,12,0.0,0.0,2015-07-30 16:02:00+00:00,2015,4883,True,True
295,Frog Fire,Modoc,25,41.4,-121.39,2015-07-30 17:45:00+00:00,2015,4863,False,False
296,North Fire,San Bernardino,36,34.34,-117.48,2015-07-17 14:33:00+00:00,2015,4250,True,True
297,Walker Fire,Mono,26,0.0,0.0,2015-08-14 21:31:00+00:00,2015,3676,False,False
298,Tesla Fire,Alameda,1,37.38,-121.37,2015-08-19 14:45:00+00:00,2015,2700,True,True
299,Cuesta Fire,San Luis Obispo,40,35.35,-120.63,2015-08-16 18:13:00+00:00,2015,2446,True,True
300,Lowell Fire,Nevada,29,39.19,-120.88,2015-07-25 14:37:00+00:00,2015,2304,True,True
301,Horno Fire,San Diego,37,0.0,0.0,2015-08-13 13:03:00+00:00,2015,1850,False,False
302,Park Hill Fire,San Luis Obispo,40,0.0,0.0,2015-06-20 14:41:00+00:00,2015,1791,True,True
303,Saddle Fire ,Trinity,53,40.92,-123.17,2015-06-10 15:00:00+00:00,2015,1542,False,False
304,Creek Fire,Merced,24,0.0,0.0,2015-07-31 21:37:00+00:00,2015,1450,True,False
305,McCabe Fire,Merced,24,0.0,0.0,2015-07-18 22:27:00+00:00,2015,1333,True,True
306,Tassajara Fire,Monterey,27,36.37,-121.59,2015-09-19 15:00:00+00:00,2015,1086,True,True
307,Highway Fire,Riverside,33,33.88,-117.64,2015-04-18 18:12:00+00:00,2015,1049,True,True
308,Lumpkin Fire,Butte,4,39.52,-121.34,2015-09-11 14:15:00+00:00,2015,1042,True,True
309,Corrine Fire,Madera,20,37.17,-119.52,2015-06-18 21:00:00+00:00,2015,920,True,True
310,Meridian Fire,Butte,4,0.0,0.0,2015-10-03 21:15:00+00:00,2015,860,True,True
311,Elk Fire,Lake,17,55.23,-122.0,2015-09-02 14:57:00+00:00,2015,673,True,True
312,Cienega Fire,San Benito,35,36.71,-121.33,2015-10-12 16:00:00+00:00,2015,670,True,True
313,Anza Fire,Riverside,33,33.57,-116.54,2015-08-10 11:44:00+00:00,2015,543,True,False
314,Van Dyke Fire,Mono,26,0.0,0.0,2015-02-06 16:52:00+00:00,2015,509,False,False
315,Sky Fire,Madera,20,0.0,0.0,2015-06-18 14:31:00+00:00,2015,500,False,False
316,Triple Fire,Tulare,54,36.09,-118.82,2015-07-21 12:35:00+00:00,2015,430,True,True
317,Tenaya Fire,Mariposa,22,0.0,0.0,2015-09-07 21:23:00+00:00,2015,415,False,False
318,Calgrove Fire ,Los Angeles,19,34.36,-118.54,2015-06-24 13:22:00+00:00,2015,415,False,False
319,Swedes Fire,Butte,4,39.44,-121.39,2015-07-29 11:25:00+00:00,2015,400,True,True
320,Lincoln Fire,Los Angeles,19,0.0,0.0,2015-08-16 13:30:00+00:00,2015,374,False,False
321,Ione Fire,Amador,3,0.0,0.0,2015-07-02 01:58:00+00:00,2015,355,True,True
322,Warm Fire,Los Angeles,19,0.0,0.0,2015-08-16 15:30:00+00:00,2015,300,False,False
323,Site Fire,Alameda,1,0.0,0.0,2015-06-05 20:22:00+00:00,2015,300,True,False
324,Chorro Fire,Ventura,56,0.0,0.0,2015-08-02 13:15:00+00:00,2015,282,False,False
325,Forebay Fire,Merced,24,37.08,-121.07,2015-05-11 10:26:00+00:00,2015,275,True,False
326,Christensen Fire,Alameda,1,0.0,0.0,2015-05-28 17:00:00+00:00,2015,242,True,False
327,Mendocino National Forest Lightning Complex,Mendocino,23,0.0,0.0,2015-07-30 14:00:00+00:00,2015,227,False,False
328,Pacheco Fire,Santa Clara,43,0.0,0.0,2015-09-09 15:58:00+00:00,2015,215,True,False
329,Peterson Fire,Lake,17,38.93,-122.88,2015-08-22 17:30:00+00:00,2015,215,True,True
330,241 Fire,Orange,30,33.76,-117.73,2015-07-13 10:47:00+00:00,2015,214,True,False
331,China Fire,Shasta,45,40.42,-122.44,2015-07-29 17:55:00+00:00,2015,212,True,True
332,Mesa Fire,Santa Barbara,42,0.0,0.0,2015-06-29 13:11:00+00:00,2015,211,False,False
333,Big Creek Fire,Tuolumne,55,37.82,-120.16,2015-07-29 16:30:00+00:00,2015,204,True,True
334,Pines Fire ,Los Angeles,19,34.37,-117.68,2015-07-17 21:30:00+00:00,2015,200,False,False
335,Stephens Fire,Siskiyou,47,41.48,-121.85,2015-02-24 12:15:00+00:00,2015,200,False,False
336,Vasco Fire,Contra Costa,7,37.82,-121.68,2015-07-30 11:18:00+00:00,2015,195,True,False
337,Rustic Fire,Ventura,56,0.0,0.0,2015-08-14 15:22:00+00:00,2015,186,False,False
338,Cooley Fire,Siskiyou,47,41.8,-122.5,2015-07-13 17:56:00+00:00,2015,181,True,False
339,Wildcat Fire,San Diego,37,32.94,-116.85,2015-06-17 17:03:00+00:00,2015,171,True,False
340,Creek Fire,Fresno,10,40.4,-120.55,2015-09-09 14:30:00+00:00,2015,170,True,False
341,Black Fire,Tehama,52,39.84,-122.36,2015-07-04 16:33:00+00:00,2015,170,True,False
342,Flat Fire ,Kern,15,0.0,0.0,2015-08-20 15:57:00+00:00,2015,167,True,False
343,Cutca Fire,San Diego,37,33.38,-116.87,2015-07-24 16:18:00+00:00,2015,167,False,False
344,River Fire,Ventura,56,0.0,0.0,2015-06-22 07:00:00+00:00,2015,164,False,False
345,Queen Fire,Humboldt,12,41.3,-123.78,2015-07-24 23:00:00+00:00,2015,158,True,True
346,Cook Fire,Yuba,58,39.27,-121.26,2015-06-18 13:07:00+00:00,2015,158,True,True
347,Sky Fire,Solano,48,38.41,-122.08,2015-07-06 10:47:00+00:00,2015,150,True,True
348,Merwin Fire,Riverside,33,0.0,0.0,2015-07-01 20:38:00+00:00,2015,150,True,False
349,Horse Fire,Humboldt,12,40.11,-124.07,2015-08-18 18:30:00+00:00,2015,146,True,True
350,Ward Fire,Plumas,32,40.05,-120.7,2015-04-13 05:30:00+00:00,2015,137,True,False
351,Red Fire,Madera,20,37.07,-119.7,2015-06-21 12:08:00+00:00,2015,135,True,False
352,Democrat Fire,Trinity,53,40.72,-122.96,2015-08-25 14:08:00+00:00,2015,128,True,True
353,Collier Fire,San Joaquin,39,0.0,0.0,2015-06-18 14:09:00+00:00,2015,122,True,False
354,3-11 Fire,Modoc,25,41.29,-121.17,2015-07-23 16:40:00+00:00,2015,116,True,False
355,Mark Fire,Calaveras,5,38.05,-120.56,2015-08-13 16:15:00+00:00,2015,114,True,True
356,Tulloch Fire,Tuolumne,55,37.84,-120.62,2015-08-15 16:11:00+00:00,2015,112,True,False
357,Shinn Fire,Lassen,18,0.0,0.0,2015-06-30 18:00:00+00:00,2015,111,False,False
358,Apple Fire,Sacramento,34,0.0,0.0,2015-09-03 12:12:00+00:00,2015,110,True,True
359,36 Fire,Tehama,52,40.35,-121.78,2015-08-08 14:55:00+00:00,2015,110,True,True
360,Riosa Fire,Placer,31,0.0,0.0,2015-06-08 10:33:00+00:00,2015,110,True,True
361,Walker Fire,Shasta,45,40.48,-122.53,2015-09-11 15:08:00+00:00,2015,109,True,True
362,Oak Fire,Tuolumne,55,38.05,-120.3,2015-09-08 13:23:00+00:00,2015,108,True,True
363,Munjar Fire,Butte,4,39.87,-121.89,2015-10-02 14:38:00+00:00,2015,104,True,False
364,Sterling Fire,San Bernardino,36,34.17,-117.24,2015-06-25 18:30:00+00:00,2015,100,False,False
365,Laureles Fire,Monterey,27,36.57,-121.76,2015-09-19 15:25:00+00:00,2015,95,True,False
366,Deer Fire,San Luis Obispo,40,35.72,-121.02,2015-07-10 12:41:00+00:00,2015,95,True,True
367,Sprig Fire,Shasta,45,40.5,-122.2,2015-07-30 12:57:00+00:00,2015,90,True,False
368,Advance Fire,Tulare,54,36.5,-118.9,2015-07-30 12:40:00+00:00,2015,86,True,True
369,Otay Fire,San Diego,37,32.64,-116.95,2015-06-26 16:06:00+00:00,2015,80,True,False
370,Harrison Fire,Riverside,33,0.0,0.0,2015-06-01 10:16:00+00:00,2015,80,True,False
371,3-12 Fire,Modoc,25,40.86,-121.1,2015-07-23 17:30:00+00:00,2015,77,True,False
372,Fern Fire,Shasta,45,40.68,-121.93,2015-08-02 03:00:00+00:00,2015,75,True,True
373,Mallard Fire,Shasta,45,40.51,-122.2,2015-07-29 16:30:00+00:00,2015,75,True,True
374,Kyburz Fire,El Dorado,9,38.78,-120.4,2015-07-23 14:00:00+00:00,2015,75,False,False
375,Webb Fire,Butte,4,0.0,0.0,2015-07-01 13:05:00+00:00,2015,75,True,False
376,Olive Fire,Butte,4,26.42,-121.0,2015-09-02 13:18:00+00:00,2015,72,True,True
377,Prairie Fire,Siskiyou,47,0.0,0.0,2015-08-20 16:00:00+00:00,2015,69,False,False
378,Pass Fire,Kern,15,35.78,-120.19,2015-06-15 15:46:00+00:00,2015,67,True,False
379,Scales Fire,San Bernardino,36,0.0,0.0,2015-08-01 13:04:00+00:00,2015,65,False,False
380,Kerkhoff Fire,Fresno,10,0.0,0.0,2015-07-18 16:31:00+00:00,2015,60,True,False
381,Dixie Fire,Lassen,18,40.88,-121.03,2015-06-19 16:15:00+00:00,2015,60,True,False
382,Grapefruit Fire,Riverside,33,0.0,0.0,2015-06-18 14:16:00+00:00,2015,60,True,False
383,Triangle Fire,Mariposa,22,0.0,0.0,2015-06-18 12:03:00+00:00,2015,60,True,True
384,North Fire,Amador,3,38.26,-121.14,2015-06-16 16:42:00+00:00,2015,60,True,False
385,Point Fire,Shasta,45,40.39,-122.41,2015-08-03 14:28:00+00:00,2015,59,True,True
386,Military Fire,Siskiyou,47,0.0,0.0,2015-10-10 12:00:00+00:00,2015,58,False,False
387,Summit Fire,San Bernardino,36,34.23,-116.88,2015-08-23 12:25:00+00:00,2015,55,False,False
388,De Luz Fire,San Diego,37,33.41,-117.29,2015-08-09 08:22:00+00:00,2015,55,True,False
389,Fork Fire,Tehama,52,40.01,-122.55,2015-06-17 12:50:00+00:00,2015,55,True,False
390,Mill 2 Fire,San Bernardino,36,34.08,-117.05,2015-07-12 14:46:00+00:00,2015,54,True,True
391,Tesla Fire,Alameda,1,0.0,0.0,2015-06-25 16:10:00+00:00,2015,53,True,False
392,White Fire,Santa Barbara,42,34.95,-120.29,2015-08-01 14:32:00+00:00,2015,52,True,False
393,Potrero Fire,Ventura,56,34.15,-118.88,2015-11-07 01:45:00+00:00,2015,50,False,False
394,Mendocino Lightning Fires,Mendocino,23,39.43,-123.36,2015-07-30 13:36:00+00:00,2015,50,True,False
395,Antelope Fire,Kern,15,0.0,0.0,2015-09-09 11:45:00+00:00,2015,45,True,False
396,Geary Fire,Alameda,1,0.0,0.0,2015-07-02 04:40:00+00:00,2015,45,True,False
397,FKU Lightning Fires,Fresno,10,0.0,0.0,2015-06-05 17:00:00+00:00,2015,45,True,False
398,Mason Fire ,Modoc,25,0.0,0.0,2015-07-09 15:00:00+00:00,2015,43,False,False
399,Highway Fire,Santa Clara,43,0.0,0.0,2015-06-30 15:23:00+00:00,2015,42,True,False
400,Center Fire,Lassen,18,40.4,-120.55,2015-09-09 14:12:00+00:00,2015,40,True,False
401,Sullivan Fire,Stanislaus,50,37.25,-121.2,2015-07-28 12:10:00+00:00,2015,40,True,False
402,Ascot Fire,Solano,48,38.1,-122.16,2015-07-10 13:36:00+00:00,2015,40,True,True
403,Chiles Fire,Napa,28,38.53,-122.34,2015-06-16 14:27:00+00:00,2015,38,True,True
404,Garage Fire,Napa,28,0.0,0.0,2015-06-09 15:23:00+00:00,2015,36,True,True
405,Browns Fire,Trinity,53,40.0,41.46,2015-09-08 15:56:00+00:00,2015,35,True,False
406,Ranch Fire,El Dorado,9,0.0,0.0,2015-07-03 09:28:00+00:00,2015,35,True,False
407,Covelo Fire,Mendocino,23,39.78,-123.25,2015-06-28 13:30:00+00:00,2015,35,True,False
408,McCourtney Fire,Nevada,29,39.08,-121.19,2015-09-22 07:00:00+00:00,2015,30,True,False
409,Kramer Fire ,Lassen,18,41.12,-121.19,2015-08-29 16:06:00+00:00,2015,30,True,False
410,Francis Fire,Yuba,58,39.33,-121.19,2015-08-03 18:07:00+00:00,2015,30,True,False
411,Banister Fire,Ventura,56,0.0,0.0,2015-11-11 17:40:00+00:00,2015,29,False,False
412,Baxter Fire,Placer,31,38.94,-121.15,2015-07-22 18:17:00+00:00,2015,26,True,False
413,Park Fire,San Diego,37,32.68,-116.52,2015-07-24 12:43:00+00:00,2015,25,True,False
414,Betabel Fire,San Benito,35,36.87,-121.57,2015-07-20 13:23:00+00:00,2015,25,True,False
415,Lake Fire,San Diego,37,33.21,-116.73,2015-07-16 11:30:00+00:00,2015,25,True,False
416,Buckaroo Fire,El Dorado,9,0.0,0.0,2015-07-02 17:10:00+00:00,2015,25,True,False
417,Fox Fire,Mariposa,22,0.0,0.0,2015-06-07 12:06:00+00:00,2015,25,True,True
418,Oasis Fire,Lake,17,0.0,0.0,2015-06-05 19:57:00+00:00,2015,25,True,False
419,Snow Fire,Riverside,33,0.0,0.0,2015-06-05 13:32:00+00:00,2015,25,True,False
420,Dorris Fire,Siskiyou,47,42.0,-121.89,2015-07-21 17:00:00+00:00,2015,24,True,True
421,Soda Fire,Mendocino,23,39.03,-123.3,2015-07-04 15:30:00+00:00,2015,23,True,False
422,Grade Fire,Lake,17,38.83,-122.53,2015-08-24 12:12:00+00:00,2015,22,True,False
423,Gibraltar Fire,Santa Barbara,42,34.48,-119.63,2015-10-29 05:30:00+00:00,2015,21,False,False
424,Spider Fire,Riverside,33,33.99,-117.44,2015-07-12 13:52:00+00:00,2015,21,True,True
425,Bald Fire,Humboldt,12,41.15,-123.83,2015-06-10 07:42:00+00:00,2015,20,True,True
426,Pleasure Fire,Napa,28,38.52,-122.18,2015-06-27 12:51:00+00:00,2015,19,True,False
427,Keswick Fire,Shasta,45,40.6,-122.44,2015-07-07 12:34:00+00:00,2015,18,True,True
428,Buck Fire,Humboldt,12,40.11,-123.77,2015-07-28 17:19:00+00:00,2015,16,True,False
429,Mad River Complex,Trinity,53,0.0,0.0,2015-07-30 16:00:00+00:00,2015,0,False,False
430,Washington Fire,Alpine,2,38.6,-119.75,2015-06-19 19:00:00+00:00,2015,0,False,False
431,Soberanes Fire,Monterey,27,36.46,-121.9,2016-07-22 08:48:00+00:00,2016,132127,True,True
432,Erskine Fire,Kern,15,35.61,-118.46,2016-06-23 15:51:00+00:00,2016,48019,True,False
433,Chimney Fire,San Luis Obispo,40,35.71,-120.98,2016-08-13 16:03:00+00:00,2016,46344,True,True
434,Blue Cut Fire,San Bernardino,36,34.3,-117.49,2016-08-16 10:44:00+00:00,2016,36274,True,True
435,Gap Fire,Siskiyou,47,41.85,-123.12,2016-08-27 18:00:00+00:00,2016,33867,False,False
436,Rey Fire ,Santa Barbara,42,0.0,0.0,2016-08-18 17:57:00+00:00,2016,32606,True,False
437,Cedar Fire,Kern,15,35.75,-118.57,2016-08-16 16:35:00+00:00,2016,29322,False,False
438,Canyon Fire,Santa Barbara,42,34.63,-120.54,2016-09-17 17:20:00+00:00,2016,12518,False,False
439,Pilot Fire,San Bernardino,36,34.29,-117.27,2016-08-07 12:18:00+00:00,2016,8110,True,True
440,Border Fire,San Diego,37,32.61,-116.63,2016-06-19 11:03:00+00:00,2016,7609,True,True
441,Sherpa Fire,Santa Barbara,42,34.78,-119.64,2016-06-15 15:21:00+00:00,2016,7474,True,True
442,Mineral Fire,Fresno,10,36.1,-120.51,2016-08-09 13:08:00+00:00,2016,7050,True,True
443,Cold Fire,Yolo,57,38.53,-122.07,2016-08-02 16:36:00+00:00,2016,5731,True,True
444,Trailhead Fire,El Dorado,9,38.97,-120.94,2016-06-28 13:55:00+00:00,2016,5646,True,True
445,Trailhead Fire,Placer,31,38.97,-120.94,2016-06-28 13:55:00+00:00,2016,5646,True,True
446,Owens River Fire,Inyo,14,37.76,-118.95,2016-09-17 13:49:00+00:00,2016,5443,False,False
447,San Gabriel Complex (Formerly Fish & Reservoir Fires),Los Angeles,19,0.0,0.0,2016-06-20 13:59:00+00:00,2016,5399,False,False
448,Marek Fire,Los Angeles,19,34.31,-118.33,2016-11-14 05:45:00+00:00,2016,4824,False,False
449,Loma Fire,Santa Clara,43,37.11,-121.85,2016-09-26 14:42:00+00:00,2016,4474,True,True
450,Meadow Fire,Tulare,54,35.98,-118.55,2016-10-29 11:15:00+00:00,2016,4347,False,False
451,Clayton Fire,Lake,17,38.9,-122.61,2016-08-13 18:03:00+00:00,2016,3929,True,True
452,Metz Fire,Monterey,27,36.38,-121.2,2016-05-22 15:27:00+00:00,2016,3876,True,True
453,Roberts Fire,San Luis Obispo,40,0.0,0.0,2016-05-18 14:27:00+00:00,2016,3712,True,False
454,Curry Fire,Fresno,10,36.07,-120.45,2016-07-01 17:16:00+00:00,2016,2944,True,True
455,Pony Fire,Siskiyou,47,41.62,-123.56,2016-06-07 02:45:00+00:00,2016,2860,False,False
456,Clark Fire,Mono,26,0.0,0.0,2016-08-04 14:09:00+00:00,2016,2819,False,False
457,Soup Complex,Modoc,25,41.26,-120.32,2016-09-17 14:37:00+00:00,2016,2652,False,False
458,Willard Fire,Lassen,18,40.39,-120.78,2016-09-11 11:33:00+00:00,2016,2575,True,True
459,Coleman Fire,Monterey,27,36.02,-121.25,2016-06-04 14:33:00+00:00,2016,2520,True,False
460,Pine Fire,Ventura,56,34.7,-119.14,2016-06-30 16:55:00+00:00,2016,2304,False,False
461,Goose Fire,Fresno,10,37.02,-119.51,2016-07-30 16:40:00+00:00,2016,2241,True,True
462,Sacata Fire,Fresno,10,36.95,-119.26,2016-10-11 12:58:00+00:00,2016,2100,False,False
463,Deer Fire,Kern,15,35.21,-118.72,2016-07-01 14:05:00+00:00,2016,1785,True,True
464,Sawmill Fire,Sonoma,49,38.8,-122.83,2016-09-25 10:43:00+00:00,2016,1547,True,True
465,Bogart Fire,Riverside,33,0.0,0.0,2016-08-30 12:25:00+00:00,2016,1470,True,True
466,Dinosaur Fire,Merced,24,37.07,-121.2,2016-06-25 23:45:00+00:00,2016,1246,True,False
467,Roblar Fire,San Diego,37,33.39,-117.35,2016-07-21 16:06:00+00:00,2016,1245,False,False
468,Sage Fire,Los Angeles,19,34.37,-118.57,2016-07-09 12:04:00+00:00,2016,1109,False,False
469,Marshes Fire,Tuolumne,55,37.8,-120.32,2016-09-26 12:20:00+00:00,2016,1080,True,True
470,Saddle Fire,Butte,4,39.69,-121.57,2016-09-05 16:28:00+00:00,2016,850,True,True
471,Grade Fire,Siskiyou,47,41.78,-122.61,2016-08-24 14:55:00+00:00,2016,710,True,True
472,Marina Fire,Mono,26,37.97,-119.14,2016-06-25 06:30:00+00:00,2016,650,False,False
473,Tully Fire,Humboldt,12,41.28,-123.82,2016-08-22 16:03:00+00:00,2016,599,True,True
474,Fort Fire,Kern,15,34.91,118.91,2016-07-08 11:15:00+00:00,2016,554,True,False
475,99 Fire,Butte,4,39.67,-121.72,2016-08-02 14:35:00+00:00,2016,550,True,False
476,Range Fire,Kern,15,35.2,-118.72,2016-08-26 10:10:00+00:00,2016,518,True,False
477,Colyear Fire,Tehama,52,40.04,-122.57,2016-06-30 13:32:00+00:00,2016,464,True,True
478,Willow Fire,Calaveras,5,38.19,-120.64,2016-08-28 13:07:00+00:00,2016,450,True,True
479,Fiddler Fire,Shasta,45,40.37,-122.73,2016-07-08 22:45:00+00:00,2016,441,True,True
480,Beale Fire,Yuba,58,36.17,-121.39,2016-08-18 15:35:00+00:00,2016,400,True,False
481,Tule Fire,Tulare,54,36.16,-118.74,2016-08-22 22:00:00+00:00,2016,395,False,False
482,Howard Fire,Modoc,25,41.47,-120.91,2016-09-11 14:15:00+00:00,2016,380,True,False
483,Rancho Fire,Amador,3,38.38,-121.0,2016-06-28 19:02:00+00:00,2016,372,True,False
484,Hog Fire,Tehama,52,40.31,-122.13,2016-09-13 23:10:00+00:00,2016,360,True,True
485,Pacheco Fire,Calaveras,5,38.08,-120.81,2016-07-12 13:14:00+00:00,2016,341,True,False
486,Appaloosa Fire,Calaveras,5,38.03,-120.61,2016-07-02 14:55:00+00:00,2016,310,True,False
487,Flat Fire,Kern,15,0.0,0.0,2016-09-19 14:13:00+00:00,2016,306,True,False
488,Havilah Fire,Kern,15,35.5,-118.51,2016-08-28 18:50:00+00:00,2016,304,False,False
489,Butte Fire,Sutter,51,39.19,-121.78,2016-09-20 09:30:00+00:00,2016,300,True,False
490,DeWolf Fire,Fresno,10,36.88,-119.65,2016-05-25 01:03:00+00:00,2016,278,True,False
491,Creek Fire,Yolo,57,38.7,-122.15,2016-06-26 15:45:00+00:00,2016,277,True,False
492,Tobin Fire,Plumas,32,39.92,-121.32,2016-09-26 13:23:00+00:00,2016,248,False,False
493,King Fire ,San Benito,35,0.0,0.0,2016-06-17 14:30:00+00:00,2016,237,True,True
494,Onyx Fire,Kern,15,35.68,-118.22,2016-07-13 17:08:00+00:00,2016,221,True,False
495,Washington Fire,Santa Barbara,42,34.75,-120.55,2016-09-22 14:20:00+00:00,2016,215,False,False
496,Reservoir Fire,Lake,17,39.12,-122.5,2016-06-26 16:00:00+00:00,2016,215,True,True
497,Grant Fire,Alameda,1,37.74,-121.59,2016-06-25 16:11:00+00:00,2016,211,True,False
498,Camanche Fire,Amador,3,38.27,-120.9,2016-06-17 14:54:00+00:00,2016,210,True,True
499,Big Fire,Fresno,10,36.92,-119.4,2016-07-11 14:30:00+00:00,2016,188,True,False
500,Emerald Fire,El Dorado,9,38.93,-120.11,2016-10-14 01:28:00+00:00,2016,176,True,True
501,Briggs Fire,Riverside,33,0.0,0.0,2016-07-12 15:20:00+00:00,2016,173,True,False
502,Athens Fire,Placer,31,38.84,-121.31,2016-05-17 15:06:00+00:00,2016,169,True,False
503,Sunny Fire,Fresno,10,36.84,-119.34,2016-09-03 14:44:00+00:00,2016,158,True,True
504,Wheatland Fire,Los Angeles,19,34.28,-118.35,2016-05-23 14:15:00+00:00,2016,156,False,False
505,Hills Fire,Fresno,10,0.0,0.0,2016-04-28 17:45:00+00:00,2016,151,True,False
506,Old Fire,Del Norte,8,37.76,-120.03,2016-09-13 13:55:00+00:00,2016,150,False,False
507,Holy Fire,Orange,30,33.65,-117.52,2016-08-31 04:10:00+00:00,2016,150,False,False
508,Shedd Fire,San Luis Obispo,40,35.62,-120.4,2016-05-10 16:11:00+00:00,2016,150,True,False
509,Bird Fire,San Joaquin,39,37.62,-121.37,2016-08-20 08:35:00+00:00,2016,147,True,False
510,Frame Fire,Fresno,10,36.14,-120.62,2016-07-04 17:15:00+00:00,2016,145,True,False
511,Maze Fire,Stanislaus,50,0.0,0.0,2016-08-04 15:45:00+00:00,2016,140,True,False
512,Temecula Fire,Riverside,33,33.48,-117.14,2016-06-04 11:40:00+00:00,2016,139,True,True
513,Famoso Fire,Kern,15,35.61,-118.95,2016-07-15 23:55:00+00:00,2016,138,True,False
514,Avocado Fire,Fresno,10,36.79,-119.38,2016-05-15 16:38:00+00:00,2016,132,True,False
515,Bangor Fire,Butte,4,39.44,-121.43,2016-09-22 11:45:00+00:00,2016,130,True,False
516,Green Fire,Fresno,10,37.01,-119.58,2016-07-15 16:45:00+00:00,2016,123,True,True
517,Rock Creek Fire,Mono,26,0.0,0.0,2016-08-05 15:45:00+00:00,2016,122,False,False
518,Coe Fire,Stanislaus,50,37.17,-121.42,2016-06-07 16:30:00+00:00,2016,120,True,False
519,Sierra Fire,Santa Clara,43,37.42,-121.8,2016-07-30 17:25:00+00:00,2016,114,True,False
520,Coal Fire,Butte,4,39.59,-121.6,2016-06-20 16:38:00+00:00,2016,112,True,False
521,Broken Fire,Madera,20,37.26,-119.66,2016-07-04 11:53:00+00:00,2016,103,True,False
522,Cow Fire,Shasta,45,40.0,-121.94,2016-09-25 07:15:00+00:00,2016,100,True,False
523,Bailey Fire,Santa Clara,43,0.0,0.0,2016-08-17 15:19:00+00:00,2016,100,True,False
524,Hart Fire,Kern,15,35.25,-118.6,2016-08-04 17:10:00+00:00,2016,100,True,False
525,Diablo Fire,Stanislaus,50,0.0,0.0,2016-08-03 16:08:00+00:00,2016,100,True,False
526,Bradley Fire,Monterey,27,35.85,-120.81,2016-07-22 15:15:00+00:00,2016,100,True,False
527,Feather Fire,San Diego,37,32.96,-116.79,2016-07-18 13:08:00+00:00,2016,100,True,False
528,Mercury Fire,San Benito,35,5487.0,-120.84,2016-07-09 12:43:00+00:00,2016,95,True,False
529,Dunstone Fire,Butte,4,39.33,-121.79,2016-05-27 13:43:00+00:00,2016,91,True,False
530,Santos Fire,Butte,4,39.8,-121.72,2016-08-26 15:30:00+00:00,2016,88,True,True
531,Flores Fire,Tehama,52,40.08,-122.21,2016-07-01 13:54:00+00:00,2016,88,True,False
532,Moore Fire,Placer,31,38.87,-121.38,2016-06-21 12:24:00+00:00,2016,88,True,False
533,Scott Fire,Sacramento,34,38.52,-121.1,2016-07-10 15:30:00+00:00,2016,87,True,False
534,Frazier Fire,San Luis Obispo,40,35.71,-120.82,2016-06-27 12:07:00+00:00,2016,86,True,False
535,Grub Fire,Madera,20,37.32,-119.77,2016-08-04 14:13:00+00:00,2016,85,True,False
536,Tulloch Fire,Tuolumne,55,37.93,-120.53,2016-05-30 15:10:00+00:00,2016,85,True,True
537,Dunnigan Fire,Yolo,57,38.89,-122.05,2016-07-15 14:00:00+00:00,2016,84,True,False
538,Cheyenne Fire,Calaveras,5,0.0,0.0,2016-06-15 12:46:00+00:00,2016,83,True,True
539,Old Fire,San Benito,35,36.5,-121.05,2016-06-12 12:45:00+00:00,2016,83,True,False
540,Baker Fire,Tehama,52,40.2,-122.27,2016-08-03 17:27:00+00:00,2016,80,True,False
541,Serpa Fire,Madera,20,0.0,0.0,2016-07-21 12:53:00+00:00,2016,80,True,True
542,Hoag Fire,Tehama,52,39.79,-121.86,2016-06-11 14:30:00+00:00,2016,80,True,False
543,Sherwood Fire,Ventura,56,36.92,-119.4,2016-07-13 15:52:00+00:00,2016,78,True,False
544,Lake Fire,Shasta,45,40.68,-122.41,2016-09-10 15:45:00+00:00,2016,75,True,False
545,Newmark Fire,Fresno,10,36.65,-119.53,2016-09-23 12:40:00+00:00,2016,70,True,False
546,Arroyo Fire,Monterey,27,36.28,-121.33,2016-06-18 16:47:00+00:00,2016,70,True,False
547,Pala Fire,San Diego,37,33.42,-117.09,2016-05-31 13:48:00+00:00,2016,70,True,True
548,Foothill Fire,Lake,17,39.09,-122.79,2016-07-19 17:16:00+00:00,2016,69,True,True
549,Creek Fire,Napa,28,38.41,-122.43,2016-10-10 16:13:00+00:00,2016,65,True,True
550,Cotton Fire,Kern,15,35.77,-120.25,2016-06-11 15:04:00+00:00,2016,61,False,False
551,Oak Fire,Solano,48,38.33,-122.03,2016-07-22 13:01:00+00:00,2016,57,True,False
552,Baker Fire,Calaveras,5,37.98,-120.64,2016-07-21 15:06:00+00:00,2016,57,True,True
553,Mill Fire,Siskiyou,47,0.0,0.0,2016-05-19 15:37:00+00:00,2016,56,True,False
554,Lowe Fire,Monterey,27,36.19,-120.93,2016-06-23 17:57:00+00:00,2016,52,True,False
555,Ruff Fire ,Mendocino,23,39.73,-123.5,2016-09-10 14:06:00+00:00,2016,50,True,False
556,Spring Fire,San Bernardino,36,34.32,-117.32,2016-09-07 16:53:00+00:00,2016,50,True,False
557,Storksbill Fire,El Dorado,9,38.8,-121.0,2016-07-22 13:15:00+00:00,2016,50,True,True
558,Casitas Fire,Ventura,56,0.0,0.0,2016-04-28 19:00:00+00:00,2016,50,False,False
559,70 Fire,Butte,4,39.43,-121.61,2016-06-21 15:09:00+00:00,2016,49,True,False
560,Auburn Fire,Nevada,29,39.2,-121.06,2016-09-17 13:40:00+00:00,2016,47,True,False
561,Laguna Fire,Orange,30,33.58,-117.77,2016-06-26 13:10:00+00:00,2016,47,True,False
562,Bell Fire,Amador,3,38.52,-120.84,2016-09-23 13:12:00+00:00,2016,45,True,True
563,Kugelman Fire,Lake,17,36.1,-120.51,2016-08-09 17:30:00+00:00,2016,45,True,False
564,Kuehner Fire,Ventura,56,34.28,-118.63,2016-07-01 14:00:00+00:00,2016,45,True,False
565,Paskenta Fire,Tehama,52,39.94,-122.4,2016-06-21 10:26:00+00:00,2016,43,True,False
566,Walker Fire,Kern,15,0.0,0.0,2016-05-30 17:57:00+00:00,2016,43,True,False
567,Dockery Fire,Lassen,18,0.0,0.0,2016-07-30 16:25:00+00:00,2016,42,True,True
568,Boys Fire,Sacramento,34,38.56,-121.13,2016-09-11 11:25:00+00:00,2016,40,True,False
569,Evergreen Fire,Riverside,33,0.0,0.0,2016-08-28 15:23:00+00:00,2016,40,True,False
570,Franklin Fire,Contra Costa,7,38.01,-122.19,2016-07-24 16:30:00+00:00,2016,40,True,False
571,Phoenix Fire,Nevada,29,39.39,-120.52,2016-09-07 15:09:00+00:00,2016,38,False,False
572,Fork Fire,Madera,20,37.24,-119.47,2016-07-29 17:55:00+00:00,2016,38,True,False
573,Mina Fire,Mendocino,23,39.87,-123.43,2016-08-30 13:35:00+00:00,2016,36,True,False
574,Knoxville Fire,Lake,17,38.68,-122.26,2016-08-09 18:50:00+00:00,2016,36,True,False
575,Gopher Fire,San Diego,37,33.23,-117.15,2016-08-10 09:14:00+00:00,2016,35,True,False
576,Mountain Fire,Shasta,45,40.61,-122.47,2016-08-09 12:14:00+00:00,2016,35,True,False
577,Neal Fire,Butte,4,0.0,0.0,2016-07-28 14:27:00+00:00,2016,35,True,False
578,Stagecoach Fire,Calaveras,5,37.96,-120.67,2016-07-12 15:19:00+00:00,2016,35,True,False
579,Campo Fire,Calaveras,5,38.22,-120.87,2016-06-27 18:00:00+00:00,2016,33,True,False
580,Moffett Fire,Siskiyou,47,41.63,-122.79,2016-09-12 16:28:00+00:00,2016,32,True,False
581,Frymire Fire,Tuolumne,55,37.81,-120.7,2016-07-30 17:25:00+00:00,2016,32,True,False
582,Clay Fire,Sacramento,34,38.31,-121.06,2016-06-03 16:57:00+00:00,2016,32,True,False
583,Old Fire,Butte,4,39.89,-121.7,2016-09-16 23:28:00+00:00,2016,30,True,False
584,Lone Pine Fire,Inyo,14,36.59,-118.16,2016-07-01 12:56:00+00:00,2016,30,True,False
585,Hidden Fire,San Benito,35,36.8,-121.4,2016-06-03 17:39:00+00:00,2016,30,True,False
586,70 Fire,Butte,4,39.62,-121.6,2016-05-29 16:51:00+00:00,2016,30,True,True
587,Taglio Fire,Merced,24,37.22,-121.08,2016-04-24 11:10:00+00:00,2016,30,True,False
588,Gopher Fire,San Diego,37,33.25,-117.16,2016-11-13 11:14:00+00:00,2016,28,True,False
589,Rock Fire,San Diego,37,33.0,-116.96,2016-07-22 14:47:00+00:00,2016,28,True,True
590,Deer Fire,Amador,3,38.26,-120.87,2016-08-05 13:49:00+00:00,2016,26,True,True
591,Bailey Fire,Siskiyou,47,41.96,-122.59,2016-07-19 14:09:00+00:00,2016,26,True,False
592,Oak Fire,Santa Clara,43,37.12,-121.7,2016-09-01 14:36:00+00:00,2016,25,True,False
593,Oak Fire,Santa Clara,43,37.07,-121.69,2016-08-12 16:00:00+00:00,2016,25,True,False
594,Alder Fire,El Dorado,9,0.0,0.0,2016-08-06 15:00:00+00:00,2016,25,False,False
595,North Branch Extension Fire,Lake,17,0.0,0.0,2016-07-29 14:55:00+00:00,2016,25,True,False
596,Aukum Fire,El Dorado,9,38.64,-120.7,2016-06-03 12:41:00+00:00,2016,25,True,True
597,Bryson Fire,Monterey,27,35.84,-121.04,2016-05-12 14:13:00+00:00,2016,25,True,False
598,Keswick Fire,Shasta,45,40.61,-122.47,2016-06-11 16:02:00+00:00,2016,24,True,False
599,Stafford Fire,Humboldt,12,40.46,-124.06,2016-08-11 14:57:00+00:00,2016,23,True,False
600,Table Fire,Siskiyou,47,41.72,-122.37,2016-07-21 20:30:00+00:00,2016,23,True,False
601,Summit Fire,Humboldt,12,40.99,-123.78,2016-08-12 17:23:00+00:00,2016,21,True,False
602,Ken Fire,San Bernardino,36,34.26,-117.44,2016-09-03 21:51:00+00:00,2016,20,False,False
603,Mockingbird Fire,Lake,17,39.14,-122.91,2016-08-30 16:54:00+00:00,2016,20,True,False
604,Edison Fire,Ventura,56,0.0,0.0,2016-05-12 14:13:00+00:00,2016,20,True,False
605,Willow Fire,Amador,3,0.0,0.0,2016-08-30 16:52:00+00:00,2016,19,True,True
606,Shelter Fire,Ventura,56,33.12,-116.59,2016-07-11 12:58:00+00:00,2016,15,True,False
607,Collier Fire,Tehama,52,0.0,0.0,2016-07-25 16:55:00+00:00,2016,11,True,False
608,Fiddler Fire,Shasta,45,0.0,0.0,2016-05-25 16:51:00+00:00,2016,11,True,False
609,Jacobson Fire,Tulare,54,36.22,-118.55,2016-10-20 17:00:00+00:00,2016,10,False,False
610,Mokelumne Fire,Alpine,2,38.58,-120.01,2016-08-18 12:05:00+00:00,2016,0,False,False
611,Sand Fire,Los Angeles,19,0.0,0.0,2016-07-22 14:11:00+00:00,2016,0,False,False
612,Soda Fire,San Luis Obispo,40,35.01,-119.58,2016-06-04 17:46:00+00:00,2016,0,False,False
613,Old Fire,Los Angeles,19,0.0,0.0,2016-06-04 16:09:00+00:00,2016,0,False,False
614,Chimney Fire,Tulare,54,35.85,-118.09,2016-06-01 15:35:00+00:00,2016,0,False,False
615,Gorman Fire,Los Angeles,19,34.69,-118.79,2016-04-19 13:09:00+00:00,2016,0,False,False
616,Thomas Fire,Santa Barbara,42,34.42,-119.09,2017-12-04 18:28:00+00:00,2017,281893,True,True
617,Thomas Fire,Ventura,56,34.42,-119.09,2017-12-04 18:28:00+00:00,2017,281893,True,True
618,Long Valley Fire,Lassen,18,40.07,-120.14,2017-07-11 14:15:00+00:00,2017,83733,False,False
619,Modoc July Complex,Modoc,25,0.0,0.0,2017-07-24 12:00:00+00:00,2017,83120,False,False
620,Detwiler Fire,Mariposa,22,37.62,-120.21,2017-07-16 15:56:00+00:00,2017,81826,True,True
621,Eclipse Complex,Siskiyou,47,41.84,-123.47,2017-08-15 07:55:00+00:00,2017,78698,False,False
622,Nuns / Adobe / Norrbom/ Pressley / Partrick Fires / Oakmont (Central LNU Complex),Napa,28,38.4,-122.52,2017-10-08 22:00:00+00:00,2017,56556,True,True
623,Nuns / Adobe / Norrbom/ Pressley / Partrick Fires / Oakmont (Central LNU Complex),Sonoma,49,38.4,-122.52,2017-10-08 22:00:00+00:00,2017,56556,True,True
624,Atlas Fire (Southern LNU Complex),Napa,28,38.39,-122.24,2017-10-08 21:52:00+00:00,2017,51624,True,True
625,Atlas Fire (Southern LNU Complex),Solano,48,38.39,-122.24,2017-10-08 21:52:00+00:00,2017,51624,True,True
626,Garza Fire,Kings,16,35.93,-120.2,2017-07-09 15:10:00+00:00,2017,48889,True,True
627,Miller Complex,Siskiyou,47,42.04,-123.22,2017-08-14 14:00:00+00:00,2017,39715,False,False
628,Tubbs Fire (Central LNU Complex),Napa,28,38.61,-122.63,2017-10-08 21:45:00+00:00,2017,36807,True,True
629,Tubbs Fire (Central LNU Complex),Sonoma,49,38.61,-122.63,2017-10-08 21:45:00+00:00,2017,36807,True,True
630,Pier Fire,Tulare,54,36.15,-118.74,2017-08-29 08:29:00+00:00,2017,36556,False,True
631,Redwood Valley Fire (Mendocino Lake Complex),Mendocino,23,39.25,-123.17,2017-10-08 23:36:00+00:00,2017,36523,True,True
632,Alamo Fire,San Luis Obispo,40,35.02,-120.32,2017-07-06 15:44:00+00:00,2017,28687,True,True
633,Orleans Complex,Siskiyou,47,41.59,-123.5,2017-07-26 18:00:00+00:00,2017,27276,False,False
634,Helena - Fork Fire,Trinity,53,40.76,-123.1,2017-08-30 18:00:00+00:00,2017,21846,False,False
635,Lion Fire,Tulare,54,36.27,-118.49,2017-09-27 14:00:00+00:00,2017,18900,False,False
636,R-4 Fire,Lassen,18,40.7,-119.93,2017-08-30 08:30:00+00:00,2017,18618,False,False
637,Whittier Fire,Santa Barbara,42,34.55,-119.95,2017-07-08 13:43:00+00:00,2017,18430,False,False
638,Pocket Fire (Central LNU Complex),Sonoma,49,38.77,-122.91,2017-10-09 03:30:00+00:00,2017,17357,True,True
639,Schaeffer Fire,Tulare,54,0.0,0.0,2017-06-24 16:16:00+00:00,2017,16031,False,False
640,Creek Fire,Los Angeles,19,34.31,-118.36,2017-12-05 03:44:00+00:00,2017,15619,False,True
641,Buck Fire,Trinity,53,40.23,-123.04,2017-09-12 17:42:00+00:00,2017,13417,False,False
642,Railroad Fire,Madera,20,37.45,-119.65,2017-08-29 12:19:00+00:00,2017,12407,False,False
643,Elm Fire,Fresno,10,36.12,-120.37,2017-05-18 13:11:00+00:00,2017,10343,True,True
644,Cascade Fire (Wind Complex),Yuba,58,39.32,-121.4,2017-10-08 23:03:00+00:00,2017,9989,True,True
645,Canyon 2 Fire,Orange,30,33.87,-117.71,2017-10-09 09:51:00+00:00,2017,9217,True,True
646,Slinkard Fire,Mono,26,38.66,-119.55,2017-08-29 15:15:00+00:00,2017,8925,False,False
647,Cherokee Fire,Butte,4,39.62,-121.53,2017-10-08 21:45:00+00:00,2017,8417,True,True
648,Empire Fire,Mariposa,22,37.64,-119.62,2017-08-01 08:45:00+00:00,2017,8094,False,False
649,Parker 2 Fire,Modoc,25,41.47,-120.32,2017-08-03 14:00:00+00:00,2017,7697,False,False
650,La Tuna Fire ,Los Angeles,19,34.23,-118.27,2017-09-01 13:26:00+00:00,2017,7194,False,False
651,South Fork Fire,Mariposa,22,37.54,-119.6,2017-08-14 14:28:00+00:00,2017,7000,False,False
652,Manzanita Fire,Riverside,33,33.53,-116.59,2017-06-26 15:10:00+00:00,2017,6309,True,False
653,LaPorte Fire (Wind Complex),Butte,4,39.39,-121.41,2017-10-09 00:57:00+00:00,2017,6151,True,True
654,Rye Fire,Los Angeles,19,34.45,-118.58,2017-12-05 11:31:00+00:00,2017,6049,True,True
655,Mud Fire,Lassen,18,40.44,-120.22,2017-08-29 14:36:00+00:00,2017,6042,False,False
656,Wall Fire,Butte,4,39.45,-121.41,2017-07-07 14:52:00+00:00,2017,6033,True,True
657,Jayne Fire,Fresno,10,36.07,-120.27,2017-04-20 15:40:00+00:00,2017,5738,True,True
658,Summit Complex,Stanislaus,50,38.33,-119.78,2017-07-31 13:44:00+00:00,2017,5247,False,False
659,Ruth Complex,Trinity,53,40.18,-123.37,2017-08-07 22:30:00+00:00,2017,4736,False,False
660,Minerva Fire,Plumas,32,39.9,-120.98,2017-07-29 18:55:00+00:00,2017,4310,False,False
661,Lilac Fire,San Diego,37,33.32,-117.16,2017-12-07 11:15:00+00:00,2017,4100,True,True
662,Ponderosa Fire,Butte,4,39.58,-121.3,2017-08-29 13:16:00+00:00,2017,4016,True,False
663,Palmer Fire,Riverside,33,33.97,-117.1,2017-09-02 13:33:00+00:00,2017,3874,True,True
664,Young Fire,Siskiyou,47,41.85,-123.68,2017-08-07 17:45:00+00:00,2017,3142,False,False
665,Hawk Fire,Kern,15,35.78,-118.9,2017-07-07 09:18:00+00:00,2017,2940,True,False
666,Canyon Fire,Orange,30,33.87,-117.69,2017-09-25 13:03:00+00:00,2017,2662,True,False
667,Eureka Fire,Plumas,32,39.75,-120.75,2017-09-05 18:38:00+00:00,2017,2575,False,False
668,I-5 Fire,Kings,16,36.05,-120.05,2017-08-24 18:13:00+00:00,2017,2312,False,False
669,Indian Fire,Tulare,54,36.26,-118.3,2017-08-02 18:00:00+00:00,2017,2295,False,False
670,Roadrunner Fire,Tulare,54,36.02,-118.94,2017-07-30 17:43:00+00:00,2017,2289,True,False
671,Winters Fire,Yolo,57,38.5,-122.03,2017-07-06 12:41:00+00:00,2017,2269,True,True
672,Sulphur Fire (Mendocino Lake Complex),Lake,17,39.01,-122.65,2017-10-08 23:59:00+00:00,2017,2207,True,True
673,Gate Fire,San Diego,37,32.66,-116.81,2017-05-20 23:19:00+00:00,2017,2056,True,True
674,Adobe Fire (Central LNU Complex),Sonoma,49,0.0,0.0,2017-10-09 01:00:00+00:00,2017,1868,True,True
675,Parkfield Fire,Monterey,27,35.87,-120.58,2017-07-08 18:30:00+00:00,2017,1816,True,False
676,Parkfield Fire,San Luis Obispo,40,35.87,-120.58,2017-07-08 18:30:00+00:00,2017,1816,True,False
677,Wright Fire,Merced,24,36.97,-120.89,2017-05-12 15:30:00+00:00,2017,1800,True,False
678,Creek Fire,Stanislaus,50,38.12,-119.94,2017-09-03 16:23:00+00:00,2017,1749,False,False
679,37 Fire,Sonoma,49,38.14,-122.47,2017-10-09 14:00:00+00:00,2017,1660,True,False
680,Park Fire,Fresno,10,35.96,-120.56,2017-07-17 13:15:00+00:00,2017,1649,True,True
681,Quail Fire,Kern,15,35.6,-119.08,2017-07-06 12:29:00+00:00,2017,1626,True,False
682,Hill Fire,San Luis Obispo,40,35.4,-120.5,2017-06-26 15:27:00+00:00,2017,1598,True,True
683,Derrick Fire,Fresno,10,36.27,-120.62,2017-07-02 22:28:00+00:00,2017,1538,True,True
684,Highway Fire,Kern,15,35.53,-118.67,2017-06-18 14:22:00+00:00,2017,1522,False,False
685,Holcomb Fire,San Bernardino,36,34.3,-116.83,2017-06-19 15:05:00+00:00,2017,1503,False,False
686,Oakwood Fire,Madera,20,37.08,-119.8,2017-06-10 13:19:00+00:00,2017,1431,True,True
687,Garden Fire,Kern,15,35.54,-118.65,2017-07-30 16:17:00+00:00,2017,1350,False,False
688,Opera Fire,Riverside,33,34.01,-117.31,2017-04-30 15:23:00+00:00,2017,1350,True,False
689,Caldwell Fire,Kern,15,35.76,-118.41,2017-09-01 14:37:00+00:00,2017,1319,False,False
690,Latrobe Fire,Sacramento,34,38.52,-121.1,2017-07-26 14:45:00+00:00,2017,1286,True,False
691,Tarina Fire ,Kern,15,35.38,-118.8,2017-06-30 13:49:00+00:00,2017,1200,True,False
692,Buffalo Fire,San Diego,37,33.4,-117.4,2017-10-17 10:19:00+00:00,2017,1088,False,False
693,Hudson Fire,Kern,15,34.94,-119.45,2017-07-18 11:45:00+00:00,2017,1083,True,False
694,Blaine Fire,Riverside,33,33.98,-117.31,2017-08-13 16:10:00+00:00,2017,1044,True,True
695,Mission Fire,Madera,20,37.22,-119.48,2017-09-03 13:06:00+00:00,2017,1035,True,True
696,Chilcoot Fire,Plumas,32,39.75,-120.14,2017-08-06 15:32:00+00:00,2017,1020,False,False
697,Range Fire,San Diego,37,33.35,-117.4,2017-05-25 18:15:00+00:00,2017,1000,False,False
698,Berry Fire,Shasta,45,40.98,-121.82,2017-09-12 06:58:00+00:00,2017,995,True,True
699,El Dorado Fire,Fresno,10,36.53,-120.21,2017-04-28 15:40:00+00:00,2017,976,False,False
700,Grade Fire,Mendocino,23,39.3,-123.29,2017-07-16 14:51:00+00:00,2017,900,True,True
701,Beale Fire,Yuba,58,39.12,-121.33,2017-08-20 14:44:00+00:00,2017,867,True,False
702,Wildomar Fire,Riverside,33,33.6,-117.34,2017-10-26 12:34:00+00:00,2017,866,True,False
703,Poslin Fire,Lassen,18,39.89,-120.07,2017-08-06 19:52:00+00:00,2017,859,False,False
704,Lobo Fire (Wind Complex),Nevada,29,39.25,-121.13,2017-10-09 00:01:00+00:00,2017,821,True,True
705,Lake Fire,Los Angeles,19,34.56,-118.61,2017-06-17 13:55:00+00:00,2017,800,False,False
706,Yankee Fire,San Luis Obispo,40,35.79,-120.77,2017-08-11 16:06:00+00:00,2017,775,True,False
707,Placerita Fire,Los Angeles,19,34.37,-118.49,2017-06-25 12:47:00+00:00,2017,760,False,False
708,Farad Fire,Sierra,46,39.44,-120.03,2017-07-10 13:02:00+00:00,2017,747,False,False
709,Jacksonville Fire,Tuolumne,55,37.91,-120.41,2017-07-29 13:50:00+00:00,2017,690,True,True
710,Peak Fire,Mariposa,22,37.37,-119.84,2017-09-03 13:10:00+00:00,2017,680,True,True
711,Mart Fire,San Bernardino,36,34.15,-117.18,2017-06-27 15:22:00+00:00,2017,670,False,False
712,Ben Fire,Mariposa,22,37.38,-119.96,2017-06-28 15:49:00+00:00,2017,630,True,True
713,Battle Fire,Modoc,25,41.86,-121.3,2017-06-28 13:50:00+00:00,2017,562,False,False
714,Mias Fire,Riverside,33,33.95,-116.88,2017-08-14 15:45:00+00:00,2017,545,True,True
715,W-2 Fire,Lassen,18,41.12,-120.75,2017-08-06 15:29:00+00:00,2017,530,False,False
716,Ming Fire,Kern,15,35.46,-118.86,2017-05-20 14:23:00+00:00,2017,506,True,False
717,Deluz Fire,San Diego,37,33.39,-117.32,2017-05-19 14:45:00+00:00,2017,486,False,False
718,Fay Fire,Siskiyou,47,41.4,-122.84,2017-07-05 11:05:00+00:00,2017,469,True,True
719,Red Fire,San Luis Obispo,40,35.4,-120.28,2017-08-02 10:15:00+00:00,2017,460,True,False
720,Bridge Fire,San Bernardino,36,34.1,-117.11,2017-07-14 14:23:00+00:00,2017,460,True,False
721,Monterey Fire,Fresno,10,36.62,-120.37,2017-06-11 17:15:00+00:00,2017,450,True,False
722,Rucker Fire,Santa Barbara,42,34.67,-120.44,2017-09-29 14:42:00+00:00,2017,444,True,False
723,Eastman Fire,Madera,20,37.15,-120.02,2017-09-18 16:04:00+00:00,2017,429,True,False
724,Table Fire,El Dorado,9,38.85,-120.29,2017-10-13 13:16:00+00:00,2017,426,False,False
725,Skirball Fire,Los Angeles,19,34.09,-118.48,2017-12-06 06:31:00+00:00,2017,422,False,True
726,Elephant Fire,Tulare,54,36.22,-119.07,2017-07-20 19:16:00+00:00,2017,416,True,False
727,Dode Fire,Modoc,25,41.72,-121.3,2017-07-13 15:23:00+00:00,2017,410,False,False
728,Jennings Fire,San Diego,37,32.85,-116.85,2017-07-11 13:45:00+00:00,2017,400,True,True
729,Sonoma Fire,Fresno,10,36.45,-120.24,2017-05-10 15:27:00+00:00,2017,400,True,False
730,Pleasant Fire,Nevada,29,39.34,-121.12,2017-08-30 15:38:00+00:00,2017,392,True,True
731,Bear Fire,Santa Cruz,44,37.18,-122.07,2017-10-16 22:30:00+00:00,2017,391,True,True
732,West Fire,Modoc,25,41.17,-120.58,2017-04-03 16:00:00+00:00,2017,380,True,False
733,Chris Fire,Mono,26,38.46,-119.48,2017-11-13 11:28:00+00:00,2017,370,False,False
734,Willow Fire,Contra Costa,7,38.03,-122.26,2017-07-08 15:26:00+00:00,2017,370,True,False
735,Creek Fire,Fresno,10,36.27,-120.65,2017-06-23 16:00:00+00:00,2017,357,True,False
736,Stone Fire,San Luis Obispo,40,35.42,-120.47,2017-07-09 13:49:00+00:00,2017,340,True,True
737,Dinely Fire,Tulare,54,36.46,-118.88,2017-06-07 11:55:00+00:00,2017,339,True,True
738,Rose Fire,Kern,15,34.93,-118.93,2017-08-10 14:32:00+00:00,2017,338,True,True
739,Bryant Fire,San Bernardino,36,34.08,-117.04,2017-08-03 15:35:00+00:00,2017,325,True,True
740,Marble Fire,Del Norte,8,41.48,-123.51,2017-07-19 14:00:00+00:00,2017,319,False,False
741,Liberty Fire,Riverside,33,33.59,-117.15,2017-12-07 13:14:00+00:00,2017,300,False,False
742,Bravo Fire,Kern,15,35.41,-118.84,2017-05-15 14:05:00+00:00,2017,288,True,False
743,Little Mountain Fire,San Bernardino,36,34.17,-117.33,2017-12-05 13:35:00+00:00,2017,260,True,False
744,Lost Fire,San Diego,37,33.35,-116.66,2017-07-22 15:00:00+00:00,2017,255,True,False
745,Huasna Fire,San Luis Obispo,40,35.12,-120.39,2017-09-20 13:41:00+00:00,2017,245,True,True
746,Murphy Fire,Fresno,10,36.25,-120.32,2017-09-19 19:47:00+00:00,2017,237,True,False
747,Largo Fire,El Dorado,9,38.54,-121.04,2017-07-30 01:45:00+00:00,2017,236,True,False
748,Deer Complex,Contra Costa,7,37.88,-121.79,2017-07-08 02:20:00+00:00,2017,231,True,False
749,Spring Fire,Mariposa,22,37.46,-119.92,2017-07-02 13:36:00+00:00,2017,225,True,True
750,Camp Fire,San Luis Obispo,40,35.35,-120.76,2017-05-18 08:48:00+00:00,2017,225,True,False
751,Arrow Fire,San Luis Obispo,40,35.21,-119.88,2017-05-15 13:58:00+00:00,2017,225,True,False
752,Bodfish Fire,Kern,15,35.6,-118.48,2017-06-10 12:17:00+00:00,2017,206,True,False
753,Eagle Fire,Riverside,33,33.85,-117.48,2017-07-04 16:55:00+00:00,2017,205,True,False
754,Skeleton Fire,Lake,17,39.45,-122.85,2017-09-12 14:36:00+00:00,2017,200,False,False
755,Range Fire,Alameda,1,37.73,-121.91,2017-08-22 14:00:00+00:00,2017,200,False,False
756,Eclipse Fire,San Diego,37,32.65,-116.43,2017-08-21 14:00:00+00:00,2017,200,True,True
757,Rose Fire,Riverside,33,33.69,-117.4,2017-07-31 14:22:00+00:00,2017,200,True,False
758,Tehama Fire,Tehama,52,40.02,-121.91,2017-10-26 20:00:00+00:00,2017,194,True,False
759,Wasioja Fire,Santa Barbara,42,34.95,-119.8,2017-05-20 17:54:00+00:00,2017,190,True,False
760,Toll Fire,Plumas,32,39.99,-120.9,2017-08-20 16:26:00+00:00,2017,186,False,False
761,Wild Fire,Fresno,10,36.7,-120.41,2017-06-11 10:46:00+00:00,2017,186,True,False
762,Rolling Fire,Kern,15,35.31,-118.7,2017-10-15 17:11:00+00:00,2017,184,True,False
763,Quarry Fire,Kern,15,35.19,-118.76,2017-10-12 10:42:00+00:00,2017,183,True,False
764,Laverne Fire,Shasta,45,40.47,-122.44,2017-07-18 12:39:00+00:00,2017,180,True,True
765,High Fire,San Bernardino,36,34.41,-117.03,2017-07-23 15:53:00+00:00,2017,170,True,True
766,Hills Fire,Riverside,33,33.88,-117.0,2017-08-19 16:31:00+00:00,2017,168,True,False
767,Evans Fire,Sierra,46,39.71,-120.02,2017-06-19 21:41:00+00:00,2017,168,False,False
768,Honcut Fire,Butte,4,39.37,-121.54,2017-07-10 14:45:00+00:00,2017,166,True,False
769,Peg Fire,Lassen,18,40.81,-120.49,2017-08-26 12:35:00+00:00,2017,157,True,False
770,26 Fire,Madera,20,37.13,-120.02,2017-06-07 21:00:00+00:00,2017,157,True,False
771,Corral Fire,Alameda,1,37.63,-121.5,2017-09-19 14:05:00+00:00,2017,155,True,False
772,Hill Fire,Siskiyou,47,41.98,-121.97,2017-07-29 16:33:00+00:00,2017,155,True,False
773,Smiley Fire,Riverside,33,33.99,-117.21,2017-06-18 15:10:00+00:00,2017,153,True,False
774,Honey Fire,Butte,4,39.75,-121.67,2017-10-09 15:05:00+00:00,2017,150,True,True
775,Olive Fire,San Luis Obispo,40,35.78,-120.24,2017-07-24 14:43:00+00:00,2017,150,True,True
776,Lucy Fire,San Luis Obispo,40,35.69,-120.32,2017-06-14 11:44:00+00:00,2017,150,True,False
777,41 Fire,Madera,20,36.91,-119.79,2017-05-17 15:30:00+00:00,2017,150,True,False
778,Tower Fire,San Bernardino,36,34.3,-117.46,2017-04-30 16:03:00+00:00,2017,150,False,False
779,River Fire,Trinity,53,40.47,-123.52,2017-10-14 16:00:00+00:00,2017,148,False,False
780,Grape Fire,Mendocino,23,39.02,-123.14,2017-09-19 13:02:00+00:00,2017,146,True,True
781,Soda Fire,Butte,4,40.08,-121.57,2017-09-28 14:46:00+00:00,2017,143,True,False
782,Ranch Fire,El Dorado,9,38.56,-120.7,2017-07-26 13:58:00+00:00,2017,140,True,True
783,French Fire,El Dorado,9,38.58,-120.92,2017-09-17 15:18:00+00:00,2017,136,True,True
784,Gorman Fire,Los Angeles,19,34.79,-118.85,2017-07-28 15:25:00+00:00,2017,135,False,False
785,King Fire,Tulare,54,35.86,-118.75,2017-06-13 17:00:00+00:00,2017,135,True,True
786,Skyway Fire,Butte,4,39.7,-121.75,2017-06-16 09:27:00+00:00,2017,134,True,False
787,Point Fire,Calaveras,5,38.4,-120.53,2017-10-09 01:10:00+00:00,2017,130,True,True
788,Border Fire,San Diego,37,32.6,-116.77,2017-09-01 04:20:00+00:00,2017,130,True,True
789,Olive Fire,San Luis Obispo,40,35.78,-120.23,2017-05-02 14:32:00+00:00,2017,130,True,False
790,Oak Fire,Shasta,45,40.7,-122.01,2017-07-01 00:48:00+00:00,2017,128,True,False
791,Tumey Fire,Fresno,10,36.54,-120.66,2017-04-29 17:15:00+00:00,2017,126,True,False
792,Coronado Fire,Mariposa,22,37.63,-120.3,2017-08-13 16:23:00+00:00,2017,125,True,False
793,Twist Fire,Tuolumne,55,37.9,-120.36,2017-07-30 16:28:00+00:00,2017,124,True,False
794,Stewart Fire,Riverside,33,34.01,-117.24,2017-08-04 14:25:00+00:00,2017,122,True,False
795,Margarita Fire,San Luis Obispo,40,35.32,-120.51,2017-09-03 16:59:00+00:00,2017,120,True,False
796,Lamb Fire,Riverside,33,33.88,-117.0,2017-05-25 14:48:00+00:00,2017,120,True,False
797,Maria Fire,Calaveras,5,38.29,-120.62,2017-07-17 12:55:00+00:00,2017,117,True,True
798,Fallon Fire,Alameda,1,37.74,-121.86,2017-10-17 14:00:00+00:00,2017,116,True,False
799,Canyon Fire,Napa,28,38.49,-122.25,2017-08-11 12:57:00+00:00,2017,114,True,True
800,Flat Fire,Fresno,10,36.93,-119.43,2017-08-26 14:31:00+00:00,2017,111,True,False
801,Lone Fire,Butte,4,39.38,-121.58,2017-06-22 11:10:00+00:00,2017,111,True,False
802,Poly Fire,San Luis Obispo,40,35.3,-120.65,2017-09-26 15:30:00+00:00,2017,105,True,False
803,Canyon Fire,Riverside,33,33.95,-116.88,2017-06-15 11:36:00+00:00,2017,105,True,False
804,Humboldt Fire,Butte,4,39.76,-121.74,2017-07-19 16:02:00+00:00,2017,103,True,False
805,Coalinga Fire,Fresno,10,36.36,-120.33,2017-08-30 16:51:00+00:00,2017,102,True,False
806,Lariat Fire,Santa Clara,43,37.4,-121.82,2017-07-11 16:51:00+00:00,2017,101,False,False
807,Church Fire,San Diego,37,32.65,-116.37,2017-10-21 13:04:00+00:00,2017,100,True,False
808,Oakmont Fire (Central LNU Complex),Sonoma,49,38.46,-122.58,2017-10-14 20:35:00+00:00,2017,100,True,True
809,Long Fire,Lake,17,39.02,-122.57,2017-10-14 05:00:00+00:00,2017,100,True,False
810,Timm Fire,Solano,48,38.44,-121.97,2017-10-02 09:37:00+00:00,2017,100,True,False
811,Bally Fire,Santa Clara,43,36.99,-121.6,2017-09-03 19:17:00+00:00,2017,100,True,False
812,Parkfield Fire,Fresno,10,36.09,-120.52,2017-09-03 09:23:00+00:00,2017,100,True,False
813,Tilton Fire,Santa Clara,43,37.15,-121.68,2017-08-11 14:55:00+00:00,2017,100,True,False
814,Mile Fire,San Bernardino,36,34.19,-117.27,2017-07-31 14:44:00+00:00,2017,100,False,False
815,Oak Fire,San Bernardino,36,34.04,-116.94,2017-11-29 12:19:00+00:00,2017,99,True,False
816,Reed Fire,Riverside,33,33.57,-116.82,2017-08-07 14:14:00+00:00,2017,92,True,True
817,Auberry Fire,Fresno,10,36.95,-119.66,2017-07-05 15:40:00+00:00,2017,91,True,True
818,Wilbur Fire,Butte,4,39.52,-121.65,2017-06-06 12:43:00+00:00,2017,91,True,False
819,Daulton Fire,Madera,20,37.1,-120.02,2017-07-07 10:00:00+00:00,2017,90,True,False
820,Ridge Fire,Lake,17,39.15,-122.58,2017-10-06 14:38:00+00:00,2017,87,True,True
821,Vista Fire,Ventura,56,34.35,-119.31,2017-10-24 14:44:00+00:00,2017,86,True,False
822,Marlborough Fire,Riverside,33,117.34,34.02,2017-08-31 10:13:00+00:00,2017,85,True,False
823,Saw Fire,Humboldt,12,40.12,-123.76,2017-08-03 11:58:00+00:00,2017,85,True,False
824,Dollar Fire,San Bernardino,36,34.2,-117.14,2017-07-22 13:35:00+00:00,2017,85,False,False
825,Ranch Fire,Santa Clara,43,37.33,-121.72,2017-06-29 13:56:00+00:00,2017,85,True,False
826,Country Fire,Monterey,27,35.87,-120.65,2017-08-07 18:08:00+00:00,2017,82,True,False
827,Loma Fire,San Diego,37,33.39,-117.47,2017-10-13 15:40:00+00:00,2017,81,False,False
828,Holiday Fire,El Dorado,9,38.87,-119.62,2017-12-28 20:51:00+00:00,2017,80,False,False
829,Mills File,Plumas,32,40.13,-120.92,2017-09-03 20:32:00+00:00,2017,79,True,False
830,Fountain Fire ,Tulare,54,35.89,-119.0,2017-05-31 11:30:00+00:00,2017,79,True,False
831,Castro Fire,Santa Clara,43,36.97,-121.56,2017-07-23 16:07:00+00:00,2017,78,True,False
832,Spring Fire ,Tehama,52,40.39,-122.13,2017-06-04 16:22:00+00:00,2017,78,True,False
833,McCourtney Fire (Wind Complex),Nevada,29,39.19,-121.08,2017-10-09 00:00:00+00:00,2017,76,True,True
834,Tivy Fire,Fresno,10,36.8,-119.36,2017-06-11 22:45:00+00:00,2017,76,True,False
835,Linne Fire,San Luis Obispo,40,35.6,-120.56,2017-09-26 16:45:00+00:00,2017,74,True,False
836,Axel Fire,El Dorado,9,38.78,-120.97,2017-07-08 16:38:00+00:00,2017,74,True,True
837,Bryant Fire,San Bernardino,36,34.08,-117.07,2017-07-07 15:45:00+00:00,2017,74,True,False
838,Lynch Fire,San Luis Obispo,40,35.79,-120.97,2017-10-13 12:14:00+00:00,2017,73,True,False
839,Ellis Fire,Riverside,33,33.76,-117.25,2017-07-18 15:34:00+00:00,2017,72,True,False
840,Camatta Fire,San Luis Obispo,40,35.44,-120.29,2017-08-02 10:33:00+00:00,2017,70,True,False
841,Sand Fire,Colusa,6,39.01,-122.2,2017-07-17 13:17:00+00:00,2017,70,True,True
842,Felipe Fire,Santa Clara,43,37.25,-121.69,2017-07-10 15:54:00+00:00,2017,70,True,False
843,Manning Fire,Fresno,10,36.61,-120.58,2017-05-19 23:28:00+00:00,2017,70,True,False
844,Hill Fire,Fresno,10,36.73,-119.28,2017-08-27 18:47:00+00:00,2017,69,True,False
845,Clay Fire,Sacramento,34,38.34,-121.11,2017-06-01 15:38:00+00:00,2017,68,True,False
846,River Fire,Lassen,18,40.03,-120.11,2017-06-04 16:12:00+00:00,2017,67,True,False
847,Orange Fire,Stanislaus,50,37.83,-120.69,2017-06-21 14:45:00+00:00,2017,65,True,False
848,Placentia Fire,Riverside,33,33.82,-117.19,2017-07-28 18:11:00+00:00,2017,63,True,False
849,Westfall Fire,Mariposa,22,37.37,-120.01,2017-06-15 07:30:00+00:00,2017,63,True,False
850,Montezuma Fire,San Diego,37,33.21,-116.47,2017-08-26 11:30:00+00:00,2017,62,True,False
851,Bottle Fire,Lake,17,38.95,-122.81,2017-08-08 16:40:00+00:00,2017,62,True,True
852,Lake Fire,Stanislaus,50,37.65,-120.49,2017-07-08 11:00:00+00:00,2017,62,True,False
853,Bolla Fire,Tehama,52,40.32,-122.83,2017-06-18 07:15:00+00:00,2017,60,True,False
854,Fox Fire,Tulare,54,36.19,-118.79,2017-07-17 15:32:00+00:00,2017,59,True,False
855,Quail Fire,Calaveras,5,38.18,-120.85,2017-07-12 13:10:00+00:00,2017,59,True,True
856,Silver Fire,Fresno,10,36.75,-119.23,2017-10-11 15:59:00+00:00,2017,58,True,True
857,Slides Fire,Lake,17,39.43,-123.03,2017-09-12 16:08:00+00:00,2017,58,False,False
858,Hogback Fire,Tulare,54,36.64,-119.0,2017-07-18 15:50:00+00:00,2017,58,True,False
859,Tower Fire,San Luis Obispo,40,35.35,-120.63,2017-07-07 16:23:00+00:00,2017,58,True,False
860,Live Fire,Tehama,52,40.16,-122.32,2017-07-28 13:24:00+00:00,2017,57,True,False
861,Freedom Fire,Fresno,10,36.81,-119.52,2017-07-04 13:21:00+00:00,2017,57,True,False
862,Bogus Fire,Siskiyou,47,41.93,-122.37,2017-06-18 15:45:00+00:00,2017,56,True,False
863,Estate Fire,Solano,48,38.44,-122.0,2017-09-23 11:05:00+00:00,2017,55,True,True
864,Owens Fire,Siskiyou,47,41.99,-121.9,2017-08-29 15:39:00+00:00,2017,55,True,False
865,Topanga Fire,Los Angeles,19,34.04,-118.59,2017-06-29 15:09:00+00:00,2017,55,False,False
866,Bradley Fire,Siskiyou,47,41.22,-122.29,2017-08-28 22:00:00+00:00,2017,54,False,False
867,Bradley Fire,Siskiyou,47,41.22,-122.27,2017-08-28 21:38:00+00:00,2017,54,False,False
868,Quimby Fire,Santa Clara,43,37.33,-121.76,2017-06-21 18:02:00+00:00,2017,54,True,False
869,Weller Fire,Santa Clara,43,37.44,-121.84,2017-07-26 23:19:00+00:00,2017,51,True,False
870,Tank Fire,Kern,15,35.22,-118.57,2017-10-26 11:55:00+00:00,2017,50,True,False
871,Extension Fire,Riverside,33,33.88,-117.01,2017-10-23 10:31:00+00:00,2017,50,True,False
872,Wilson Fire,Los Angeles,19,34.23,-118.06,2017-10-17 03:43:00+00:00,2017,50,False,False
873,Skeggs Fire,San Mateo,41,37.42,-122.3,2017-09-11 19:41:00+00:00,2017,50,True,True
874,Calgary Fire,Kern,15,35.71,-118.47,2017-08-05 13:16:00+00:00,2017,50,False,False
875,Mesa Fire,Santa Barbara,42,34.72,-120.13,2017-07-17 14:55:00+00:00,2017,50,True,False
876,West Fire,Yuba,58,39.06,-121.3,2017-07-08 16:47:00+00:00,2017,50,True,False
877,Grade Fire,Ventura,56,34.21,-118.99,2017-07-04 14:45:00+00:00,2017,50,False,False
878,Lago Fire,Riverside,33,33.88,-117.16,2017-07-03 15:14:00+00:00,2017,50,True,False
879,Douglas Fire,San Diego,37,33.23,-117.3,2017-06-13 14:31:00+00:00,2017,50,False,False
880,Power Fire,Madera,20,36.95,-120.9,2017-09-20 21:07:00+00:00,2017,48,True,False
881,Serenas Fire,Riverside,33,33.59,-116.07,2017-05-28 15:27:00+00:00,2017,48,True,False
882,Bitterwater Fire,San Benito,35,36.38,-121.0,2017-11-25 16:46:00+00:00,2017,47,True,False
883,Zenon Fire,San Luis Obispo,40,35.06,-120.56,2017-07-20 14:43:00+00:00,2017,47,True,False
884,Canyon Fire,Riverside,33,33.64,-117.4,2017-08-27 14:51:00+00:00,2017,46,False,False
885,Hidden Fire,San Bernardino,36,34.15,-117.19,2017-07-12 15:29:00+00:00,2017,46,False,False
886,Whitepine Fire,Siskiyou,47,41.87,-122.46,2017-06-06 16:38:00+00:00,2017,46,True,True
887,Riverbottom Fire,Riverside,33,33.99,-117.38,2017-12-21 11:16:00+00:00,2017,45,False,False
888,Pozo Fire,San Luis Obispo,40,35.29,-120.44,2017-10-09 14:30:00+00:00,2017,45,False,False
889,Grace Fire,Shasta,45,40.49,-121.86,2017-04-03 16:00:00+00:00,2017,45,True,False
890,Mines Fire,Alameda,1,37.56,-121.56,2017-08-27 17:45:00+00:00,2017,44,True,False
891,Roser Fire,Tehama,52,39.82,-122.28,2017-11-02 14:40:00+00:00,2017,43,True,False
892,Pine Fire,Monterey,27,36.17,-120.88,2017-09-11 15:11:00+00:00,2017,43,True,False
893,Lockwood Fire,Monterey,27,35.96,-121.09,2017-06-29 20:44:00+00:00,2017,42,True,False
894,Paskenta Fire,Tehama,52,40.1,-122.27,2017-06-24 11:15:00+00:00,2017,42,True,False
895,Jones Fire,Modoc,25,41.38,-120.53,2017-06-03 13:09:00+00:00,2017,42,True,False
896,Ward Fire,Siskiyou,47,41.99,-122.94,2017-08-13 12:41:00+00:00,2017,41,False,False
897,Stokes Fire,Los Angeles,19,34.1,-118.7,2017-06-29 15:45:00+00:00,2017,41,True,False
898,Feed Fire,Kern,15,35.05,-118.9,2017-05-14 14:00:00+00:00,2017,41,True,False
899,Riverdale Fire,Riverside,33,33.97,-117.48,2017-12-04 12:26:00+00:00,2017,40,True,False
900,Palm Fire,Riverside,33,33.9,-116.5,2017-11-14 16:11:00+00:00,2017,40,True,False
901,Freeway Fire,San Bernardino,36,34.14,-117.5,2017-10-24 10:27:00+00:00,2017,40,False,False
902,Jones Fire,Shasta,45,40.71,-122.24,2017-10-08 04:53:00+00:00,2017,40,True,False
903,Lakewood Fire,Kern,15,35.59,-118.47,2017-09-29 15:58:00+00:00,2017,40,True,False
904,Hole Fire,Del Norte,8,41.98,-124.01,2017-09-12 12:45:00+00:00,2017,40,False,False
905,Translator Fire,Humboldt,12,41.03,-123.64,2017-08-28 08:01:00+00:00,2017,40,False,False
906,Vestal Fire,Tehama,52,40.3,-122.7,2017-08-26 15:03:00+00:00,2017,40,True,False
907,Murphy Fire,Lake,17,38.86,-122.62,2017-07-17 14:44:00+00:00,2017,40,True,False
908,Reservation Fire,Monterey,27,36.67,-121.75,2017-07-16 11:17:00+00:00,2017,40,False,False
909,Table Fire,Tuolumne,55,37.9,-120.5,2017-09-19 00:22:00+00:00,2017,39,True,False
910,Spenceville Fire,Yuba,58,39.07,-121.35,2017-07-24 14:56:00+00:00,2017,39,True,True
911,Toll Fire,Solano,48,38.07,-122.23,2017-06-22 13:08:00+00:00,2017,39,False,False
912,Pine Fire,Marin,21,37.98,-122.66,2017-06-27 10:39:00+00:00,2017,38,True,False
913,Red Fire,Tuolumne,55,37.85,-120.45,2017-06-11 18:49:00+00:00,2017,38,True,False
914, Bridge Fire,Shasta,45,40.77,-122.31,2017-10-31 11:22:00+00:00,2017,37,False,False
915,Banderilla Fire,Mariposa,22,37.66,-120.35,2017-07-07 15:50:00+00:00,2017,36,True,False
916,Black Fire,San Diego,37,33.17,-116.77,2017-06-25 12:09:00+00:00,2017,36,True,False
917,Melba Fire,Riverside,33,33.75,-117.1,2017-09-29 18:01:00+00:00,2017,35,True,False
918,Spaletta Fire,Marin,21,38.08,-122.78,2017-07-12 16:15:00+00:00,2017,35,True,False
919,Jurupa Fire,Riverside,33,33.99,-117.48,2017-07-04 15:20:00+00:00,2017,35,True,False
920,Latrobe Fire,Sacramento,34,38.46,-120.92,2017-06-27 07:39:00+00:00,2017,35,True,False
921,Breckenridge Fire,Kern,15,35.37,-118.84,2017-06-09 04:53:00+00:00,2017,35,True,False
922,Smiley Fire,Riverside,33,33.96,-117.21,2017-05-21 16:12:00+00:00,2017,35,True,False
923,Meyers Fire,San Bernardino,36,34.22,-117.41,2017-12-05 13:28:00+00:00,2017,34,True,False
924,Ellie Fire,Riverside,33,33.74,-117.33,2017-09-10 13:49:00+00:00,2017,34,True,False
925,Miller Fire,Humboldt,12,40.04,-123.64,2017-08-31 13:57:00+00:00,2017,34,True,False
926,Valley Fire,San Benito,35,36.86,-121.31,2017-07-04 13:21:00+00:00,2017,34,True,False
927,Christmas Fire,Riverside,33,33.76,-117.31,2017-07-07 12:56:00+00:00,2017,33,True,False
928,Valley Fire,Riverside,33,33.58,-116.97,2017-06-13 12:00:00+00:00,2017,33,True,False
929,Creek Fire ,Kern,15,35.61,-118.46,2017-06-04 22:11:00+00:00,2017,33,True,False
930,Sandy Fire,Trinity,53,40.8,-123.38,2017-08-02 11:13:00+00:00,2017,32,False,False
931,Sandy Fire,Trinity,53,40.8,-123.39,2017-08-02 08:30:00+00:00,2017,32,False,False
932,Washington Fire,Riverside,33,33.63,-117.08,2017-07-13 10:28:00+00:00,2017,32,True,False
933,Shore Fire,Monterey,27,35.9,-120.93,2017-06-16 15:49:00+00:00,2017,32,True,True
934,Pleyto Fire,Monterey,27,35.9,-120.98,2017-06-11 18:12:00+00:00,2017,32,True,False
935,York Fire,Monterey,27,36.59,-121.8,2017-10-15 14:55:00+00:00,2017,31,True,False
936,Juniper Fire,Fresno,10,36.1,-120.44,2017-08-23 13:28:00+00:00,2017,31,True,False
937,Hub Fire,Kern,15,35.6,-118.47,2017-05-12 05:05:00+00:00,2017,31,True,False
938,Castaic Fire,Los Angeles,19,34.52,-118.63,2017-08-31 16:32:00+00:00,2017,30,False,False
939,Blocksburg Fire,Humboldt,12,40.28,-123.64,2017-08-03 16:41:00+00:00,2017,30,True,False
940,Timber Fire,Riverside,33,33.97,-117.25,2017-07-03 19:31:00+00:00,2017,30,True,False
941,Ice Fire,El Dorado,9,38.78,-120.46,2017-10-10 15:36:00+00:00,2017,29,False,False
942,Benson Fire,Tehama,52,40.29,-122.43,2017-07-08 18:58:00+00:00,2017,29,True,False
943,32 Fire,Butte,4,39.83,-121.71,2017-09-25 11:03:00+00:00,2017,28,True,False
944,4-4 Fire,Modoc,25,41.48,-120.37,2017-08-30 11:38:00+00:00,2017,28,True,False
945,Shore Fire,Del Norte,8,41.93,-124.2,2017-06-26 21:30:00+00:00,2017,28,True,False
946,Nuevo Fire,Riverside,33,33.8,-117.12,2017-06-15 15:51:00+00:00,2017,28,True,False
947,4-10 Fire,Modoc,25,41.64,-120.32,2017-08-30 14:50:00+00:00,2017,27,True,True
948,Vernon Fire,Riverside,33,33.82,-116.96,2017-06-03 12:09:00+00:00,2017,27,True,False
949,Jasper Fire,Yuba,58,39.03,-121.41,2017-09-26 15:20:00+00:00,2017,26,True,False
950,Trellis Fire,Riverside,33,33.71,-117.32,2017-06-18 16:03:00+00:00,2017,26,True,False
951,Fairview Fire,Riverside,33,33.95,-116.6,2017-06-01 16:12:00+00:00,2017,26,True,False
952,Wilson Fire,San Diego,37,33.19,-116.51,2017-10-15 14:05:00+00:00,2017,25,True,False
953,Cove Fire,San Luis Obispo,40,35.76,-121.04,2017-09-23 15:40:00+00:00,2017,25,True,False
954,Border 9 Fire,San Diego,37,32.59,-116.62,2017-09-07 15:41:00+00:00,2017,25,True,False
955,Hopper Fire,Shasta,45,40.72,-122.03,2017-09-01 11:21:00+00:00,2017,25,True,False
956,Sloane Fire,San Diego,37,32.78,-116.85,2017-06-27 09:38:00+00:00,2017,25,True,False
957,Road Fire,Madera,20,37.02,-119.95,2017-06-18 14:04:00+00:00,2017,25,True,False
958,5 Fire,Los Angeles,19,34.3,-118.38,2017-06-03 15:39:00+00:00,2017,25,True,False
959,Ribbonwood Fire,San Diego,37,32.68,-116.29,2017-05-24 15:30:00+00:00,2017,25,True,False
960,Portola Fire,Riverside,33,33.5,-117.02,2017-10-10 14:57:00+00:00,2017,23,True,False
961,Edwards Fire,Alameda,1,37.78,-122.17,2017-09-26 12:22:00+00:00,2017,22,False,False
962,Gold Fire,Calaveras,5,38.2,-120.68,2017-07-05 16:56:00+00:00,2017,22,True,False
963,Refuge Fire,Napa,28,38.68,-122.27,2017-06-13 10:18:00+00:00,2017,22,True,True
964,Soda Fire,San Luis Obispo,40,35.41,-120.0,2017-10-20 12:13:00+00:00,2017,21,True,False
965,Mule Fire,Lake,17,39.02,-122.49,2017-09-05 14:55:00+00:00,2017,21,True,False
966,Globe Fire,Tulare,54,36.11,-118.82,2017-07-05 08:24:00+00:00,2017,21,True,False
967,Highway Fire,Butte,4,39.36,-121.41,2017-06-22 09:49:00+00:00,2017,21,True,False
968,Platina Fire,Shasta,45,0.0,0.0,2017-06-13 12:47:00+00:00,2017,21,True,False
969,Bitterwater Fire,San Benito,35,36.36,-121.0,2017-05-22 04:50:00+00:00,2017,21,True,False
970,Blue Fire,Humboldt,12,40.89,-123.97,2017-10-08 16:40:00+00:00,2017,20,True,True
971,Fort Fire,Sonoma,49,38.52,-123.25,2017-10-07 20:00:00+00:00,2017,20,True,False
972,36 Fire,Tehama,52,40.2,-122.25,2017-10-03 16:22:00+00:00,2017,20,True,False
973,Falls Fire,Tuolumne,55,37.66,-120.31,2017-08-01 16:33:00+00:00,2017,20,True,False
974,Seine Fire,San Bernardino,36,34.14,-117.2,2017-07-22 15:49:00+00:00,2017,20,False,False
975,Range Fire,Mendocino,23,39.13,-123.1,2017-07-17 12:37:00+00:00,2017,20,True,True
976,Reed Fire,Riverside,33,33.53,-116.85,2017-06-13 17:21:00+00:00,2017,20,True,False
977,Fish Fire,Contra Costa,7,37.87,-122.21,2017-06-05 13:17:00+00:00,2017,20,True,False
978,City Fire,Kings,16,35.98,-119.92,2017-05-18 12:54:00+00:00,2017,20,True,False
979,Nacimiento Fire,Monterey,27,35.77,-120.92,2017-05-14 12:00:00+00:00,2017,20,True,False
980,Longhorn Fire,Riverside,33,33.89,-116.91,2017-12-13 15:27:00+00:00,2017,19,True,False
981,Garden Fire,Nevada,29,39.06,-121.14,2017-10-10 12:30:00+00:00,2017,19,True,False
982,Nuevo Fire,Riverside,33,33.8,-117.12,2017-08-13 13:34:00+00:00,2017,19,True,False
983,Sway Fire,Humboldt,12,40.4,-123.58,2017-08-01 10:23:00+00:00,2017,19,False,False
984,Willms Fire,Stanislaus,50,37.82,-120.66,2017-07-18 22:39:00+00:00,2017,19,True,False
985,King Fire,Siskiyou,47,40.7,-122.65,2017-06-26 12:30:00+00:00,2017,19,True,True
986,Fay Fire,Kern,15,35.72,-118.31,2017-05-01 12:44:00+00:00,2017,19,True,False
987,Bodega Fire,Sonoma,49,38.26,-122.72,2017-08-27 13:30:00+00:00,2017,18,True,False
988,Lakeland Fire,Butte,4,39.54,-121.55,2017-07-04 15:45:00+00:00,2017,18,True,False
989,Panoche Fire,Fresno,10,36.61,-120.71,2017-05-28 16:16:00+00:00,2017,18,True,False
990,Pine Fire,Monterey,27,36.17,-120.87,2017-05-16 16:10:00+00:00,2017,18,True,False
991,Ramblin Fire,Mariposa,22,37.41,-119.87,2017-10-03 11:44:00+00:00,2017,17,True,False
992,Corner Fire,Shasta,45,40.93,-121.59,2017-08-17 14:15:00+00:00,2017,17,True,True
993,Sky Fire,Shasta,45,40.69,-122.17,2017-07-29 17:29:00+00:00,2017,17,True,False
994,Rocky Fire,San Luis Obispo,40,35.56,-120.47,2017-05-20 13:11:00+00:00,2017,17,True,False
995,Lonoak Fire,Monterey,27,36.28,-120.94,2017-05-17 15:18:00+00:00,2017,17,True,True
996,Canyon Fire,Riverside,33,33.88,-116.99,2017-05-14 12:51:00+00:00,2017,17,True,False
997,Elk Fire,Kern,15,35.19,-119.29,2017-06-02 18:55:00+00:00,2017,16,True,False
998,Matz Fire,San Bernardino,36,34.04,-116.55,2017-05-29 01:20:00+00:00,2017,16,True,False
999,Rusty Fire,Fresno,10,36.97,-119.58,2017-05-28 07:49:00+00:00,2017,16,True,False
1000,Paskenta Fire ,Tehama,52,39.88,-122.54,2017-08-10 17:24:00+00:00,2017,15,True,False
1001,Greenhorn Fire,Nevada,29,39.17,-120.95,2017-07-27 14:49:00+00:00,2017,15,True,False
1002,Centerville Fire,Modoc,25,41.46,-120.57,2017-07-17 13:38:00+00:00,2017,15,True,False
1003,Alvarado Fire,Monterey,27,35.95,-120.87,2017-06-28 09:30:00+00:00,2017,15,True,False
1004,Lombardi Fire,Calaveras,5,38.2,-120.83,2017-05-28 15:30:00+00:00,2017,15,True,False
1005,66 Fire,Riverside,33,33.57,-116.08,2017-04-13 02:30:00+00:00,2017,15,True,False
1006,Drum Fire,Santa Barbara,42,34.72,-120.27,2017-12-16 12:21:00+00:00,2017,14,True,False
1007,Coast Fire,Santa Barbara,42,34.61,-120.41,2017-12-14 12:59:00+00:00,2017,14,True,False
1008,Desabla Fire,Butte,4,39.86,-121.63,2017-07-02 13:43:00+00:00,2017,14,True,False
1009,Hog Fire,Monterey,27,35.8,-120.53,2017-06-09 16:15:00+00:00,2017,14,True,False
1010,Moraga Fire,Riverside,33,33.97,-117.44,2017-05-18 17:25:00+00:00,2017,14,True,False
1011,Milton Fire,Stanislaus,50,37.9,-120.85,2017-10-18 12:53:00+00:00,2017,13,True,False
1012,Woodland Fire,El Dorado,9,38.7,-120.74,2017-07-25 14:13:00+00:00,2017,13,True,False
1013,Rosado Fire,El Dorado,9,38.67,-121.06,2017-07-12 13:51:00+00:00,2017,13,True,False
1014,Silver Fire,San Bernardino,36,34.3,-117.31,2017-07-04 13:15:00+00:00,2017,13,False,False
1015,Pacific Fire,Butte,4,39.44,-121.61,2017-09-12 17:24:00+00:00,2017,12,True,False
1016,Dehesa Fire,San Diego,37,0.0,0.0,2017-06-04 11:04:00+00:00,2017,12,True,False
1017,Shandon Fire,San Luis Obispo,40,35.69,-120.33,2017-05-07 16:41:00+00:00,2017,12,True,False
1018,Jameson Fire,Riverside,33,33.79,-117.5,2017-04-30 19:43:00+00:00,2017,12,True,False
1019,Taglio Fire,Merced,24,37.22,-121.08,1969-12-31 16:00:00+00:00,2017,12,True,False
1020,Independence Fire,Sonoma,49,38.7,-122.9,2017-07-31 23:17:00+00:00,2017,11,True,False
1021,Lisa Fire,Riverside,33,33.91,-117.1,2017-07-02 13:04:00+00:00,2017,11,True,False
1022,Freeway Fire,Tehama,52,40.25,-122.25,2017-10-08 12:15:00+00:00,2017,10,True,False
1023,Dexter Fire,Mariposa,22,37.77,-120.16,2017-09-20 14:53:00+00:00,2017,10,True,False
1024,Shaver Fire,Fresno,10,37.1,-119.32,2017-09-11 10:00:00+00:00,2017,10,True,False
1025,Sandra Fire,Amador,3,38.34,-120.72,2017-08-28 17:06:00+00:00,2017,10,True,False
1026,Rincon Fire,Los Angeles,19,34.24,-117.85,2017-08-03 16:21:00+00:00,2017,10,False,False
1027,Grizzly Fire,Nevada,29,39.37,-120.98,2017-07-21 16:50:00+00:00,2017,10,True,False
1028,North Fire,Shasta,45,40.49,-122.39,2017-07-15 18:10:00+00:00,2017,10,True,True
1029,Navajo Fire,Riverside,33,33.78,-117.24,2017-07-13 14:14:00+00:00,2017,10,True,False
1030,Rebie Fire,Butte,4,39.5,-121.34,2017-07-12 13:55:00+00:00,2017,10,True,True
1031,Canyon Fire,Riverside,33,33.92,-116.99,2017-07-03 13:34:00+00:00,2017,10,True,False
1032,Brewer Fire,Nevada,29,39.08,-121.07,2017-07-02 12:41:00+00:00,2017,10,True,False
1033,Lambs Fire,Riverside,33,33.91,-116.97,2017-06-18 12:28:00+00:00,2017,10,True,False
1034,Springs Fire,Riverside,33,117.14,33.94,2017-06-16 14:51:00+00:00,2017,10,True,False
1035,Pine Fire,Kern,15,35.56,-118.8,2017-06-05 14:02:00+00:00,2017,10,True,False
1036,Shirleon Fire ,Riverside,33,33.87,-116.88,2017-06-04 16:48:00+00:00,2017,10,True,False
1037,Twenty Fire,Yuba,58,39.23,-121.38,2017-05-29 15:31:00+00:00,2017,10,True,False
1038,Champagne Fire,Kern,15,34.87,-118.35,2017-05-28 10:59:00+00:00,2017,10,True,False
1039,Moreno Fire,Riverside,33,33.95,-117.18,2017-05-23 13:13:00+00:00,2017,10,True,False
1040,Soledad Fire,Monterey,27,36.44,-121.35,2017-04-24 12:06:00+00:00,2017,10,True,False
1041,Pressley Fire (Central LNU Complex),Sonoma,49,38.37,-122.64,2017-10-09 01:30:00+00:00,2017,0,True,True
1042,Partrick Fire (Central LNU Complex),Napa,28,38.32,-122.39,2017-10-08 23:48:00+00:00,2017,0,True,True
1043,Rattlesnake Fire,Mariposa,22,37.74,-119.78,2017-09-07 15:00:00+00:00,2017,0,False,False
1044,Clear Complex (merged into Eclipse Complex),Siskiyou,47,41.7,-123.51,2017-07-25 12:45:00+00:00,2017,0,False,False
1045,Warner Mountain Lightning,Modoc,25,41.34,-120.3,2017-07-23 00:00:00+00:00,2017,0,False,False
1046,Creek Fire,Glenn,11,39.75,-122.18,2017-07-19 17:30:00+00:00,2017,0,False,False
1047,Antelope Fire,Lassen,18,40.64,-120.96,2017-07-06 13:00:00+00:00,2017,0,False,False
1048,Klamath Fire,Siskiyou,47,41.87,-122.73,2017-07-04 15:21:00+00:00,2017,0,False,False
1049, Cristianitos Fire,San Diego,37,33.44,-117.58,2017-06-28 17:56:00+00:00,2017,0,False,False
1050,Salmon-August Complex ,Siskiyou,47,41.84,-123.47,2017-06-25 17:00:00+00:00,2017,0,False,False
1051,King Incident,Tulare,54,36.52,-119.51,2017-06-23 22:32:00+00:00,2017,0,False,False
1052,Range Fire,San Luis Obispo,40,35.85,-120.8,2017-05-19 13:10:00+00:00,2017,0,False,False
1053,Oroville Spillway ,Butte,4,39.51,-121.56,2017-02-07 14:00:00+00:00,2017,0,True,True
1054,Ranch Fire (Mendocino Complex),Colusa,6,39.24,-123.1,2018-07-27 12:05:00+00:00,2018,410203,True,True
1055,Ranch Fire (Mendocino Complex),Glenn,11,39.24,-123.1,2018-07-27 12:05:00+00:00,2018,410203,True,True
1056,Ranch Fire (Mendocino Complex),Lake,17,39.24,-123.1,2018-07-27 12:05:00+00:00,2018,410203,True,True
1057,Ranch Fire (Mendocino Complex),Mendocino,23,39.24,-123.1,2018-07-27 12:05:00+00:00,2018,410203,True,True
1058,Carr Fire,Shasta,45,40.65,-122.62,2018-07-23 13:15:00+00:00,2018,229651,True,True
1059,Carr Fire,Trinity,53,40.65,-122.62,2018-07-23 13:15:00+00:00,2018,229651,True,True
1060,Camp Fire,Butte,4,39.81,-121.43,2018-11-08 06:33:00+00:00,2018,153336,True,True
1061,Woolsey Fire,Los Angeles,19,34.23,-118.7,2018-11-08 14:24:00+00:00,2018,96949,True,True
1062,Woolsey Fire,Ventura,56,34.23,-118.7,2018-11-08 14:24:00+00:00,2018,96949,True,True
1063,Ferguson Fire,Mariposa,22,37.65,-119.89,2018-07-13 21:36:00+00:00,2018,96901,False,False
1064,County Fire,Napa,28,38.81,-122.18,2018-06-30 14:12:00+00:00,2018,90288,True,True
1065,County Fire,Yolo,57,38.81,-122.18,2018-06-30 14:12:00+00:00,2018,90288,True,True
1066,Delta Fire,Shasta,45,40.94,-122.43,2018-09-05 12:51:00+00:00,2018,63311,True,False
1067,Delta Fire,Trinity,53,40.94,-122.43,2018-09-05 12:51:00+00:00,2018,63311,True,False
1068,River Fire (Mendocino Complex),Colusa,6,39.05,-123.12,2018-07-27 13:01:00+00:00,2018,48920,True,True
1069,River Fire (Mendocino Complex),Lake,17,39.05,-123.12,2018-07-27 13:01:00+00:00,2018,48920,True,True
1070,River Fire (Mendocino Complex),Mendocino,23,39.05,-123.12,2018-07-27 13:01:00+00:00,2018,48920,True,True
1071,Hirz Fire,Shasta,45,40.9,-122.22,2018-08-09 01:55:00+00:00,2018,46150,False,True
1072,Stone Fire,Modoc,25,41.39,-121.04,2018-08-15 18:05:00+00:00,2018,39387,False,False
1073,Klamathon Fire,Siskiyou,47,41.89,-122.53,2018-07-05 12:31:00+00:00,2018,38008,True,True
1074,Donnell Fire,Tuolumne,55,38.35,-119.93,2018-08-01 17:48:00+00:00,2018,36450,False,False
1075,Holy Fire,Orange,30,33.7,-117.52,2018-08-06 13:20:00+00:00,2018,23136,False,False
1076,Whaleback Fire,Lassen,18,40.63,-120.87,2018-07-27 13:32:00+00:00,2018,18703,True,False
1077,Pawnee Fire,Lake,17,39.07,-122.6,2018-06-23 17:21:00+00:00,2018,15185,True,True
1078,Cranston Fire,Riverside,33,0.0,0.0,2018-07-25 11:41:00+00:00,2018,13139,False,False
1079,Waverly Fire,San Joaquin,39,38.05,-120.95,2018-06-29 15:11:00+00:00,2018,12300,True,False
1080,Boot Fire,Mono,26,38.35,-119.45,2018-09-04 14:26:00+00:00,2018,6974,False,False
1081,Planada Fire,Merced,24,37.39,-120.34,2018-06-15 10:34:00+00:00,2018,4564,True,False
1082,Hill Fire,Ventura,56,34.23,-118.93,2018-11-08 14:03:00+00:00,2018,4531,True,True
1083,Branscombe Fire,Solano,48,0.0,0.0,2018-10-07 13:00:00+00:00,2018,4500,False,False
1084,Lions Fire,Madera,20,37.57,-119.12,2018-06-11 12:00:00+00:00,2018,4064,False,False
1085,Sun Fire,Tehama,52,40.22,-122.18,2018-10-07 12:51:00+00:00,2018,3889,True,True
1086,Lane Fire,Tehama,52,40.35,-121.78,2018-06-23 11:38:00+00:00,2018,3716,True,True
1087,Mill Creek 1 Fire,Humboldt,12,41.08,-123.69,2018-08-16 09:18:00+00:00,2018,3674,False,False
1088,Charlie Fire,Los Angeles,19,34.48,-118.61,2018-09-22 14:30:00+00:00,2018,3380,False,False
1089,Five Fire,Kings,16,35.98,-119.98,2018-08-06 17:29:00+00:00,2018,2995,False,False
1090,Apple Fire,Tehama,52,39.94,-122.36,2018-06-09 14:10:00+00:00,2018,2956,True,True
1091,Tarina Fire,Kern,15,35.37,-118.84,2018-08-03 14:48:00+00:00,2018,2950,True,False
1092,Georges Fire,Inyo,14,36.67,-118.22,2018-07-08 13:36:00+00:00,2018,2883,False,True
1093,Snell Fire,Napa,28,38.7,-122.44,2018-09-08 14:29:00+00:00,2018,2490,True,True
1094,Chrome Fire,Glenn,11,39.65,-122.58,2018-06-09 15:32:00+00:00,2018,2290,True,True
1095,Turkey Fire,Monterey,27,35.85,-120.34,2018-08-06 12:59:00+00:00,2018,2225,True,False
1096,Nelson Fire,Solano,48,38.43,-122.04,2018-08-10 16:57:00+00:00,2018,2162,True,True
1097,Eagle Fire,Modoc,25,41.29,-120.11,2018-07-13 22:03:00+00:00,2018,2100,False,False
1098,Pleasant Fire,Inyo,14,37.4,-118.5,2018-02-18 14:12:00+00:00,2018,2070,True,True
1099,Hat Fire,Shasta,45,40.99,-121.52,2018-08-09 14:34:00+00:00,2018,1900,True,True
1100,Nees Fire,Merced,24,36.85,-120.77,2018-05-02 16:00:00+00:00,2018,1756,True,False
1101,Kerlin Fire,Trinity,53,40.62,-123.52,2018-09-04 15:20:00+00:00,2018,1751,False,False
1102,Creek Fire,Shasta,45,40.5,-122.42,2018-06-24 12:29:00+00:00,2018,1678,True,True
1103,Nurse Fire,Solano,48,38.21,-121.94,2018-11-08 13:28:00+00:00,2018,1500,False,False
1104,Yankee Fire,San Luis Obispo,40,35.74,-120.76,2018-06-20 18:22:00+00:00,2018,1500,False,False
1105,Stone Fire,Los Angeles,19,34.55,-118.31,2018-06-04 12:40:00+00:00,2018,1352,False,False
1106,Valley Fire,San Bernardino,36,34.1,-116.96,2018-07-06 13:29:00+00:00,2018,1350,False,True
1107,Airline Fire,San Benito,35,36.41,-120.99,2018-06-04 17:01:00+00:00,2018,1314,True,True
1108,Moffat Fire,Inyo,14,36.72,-118.08,2018-04-19 10:28:00+00:00,2018,1265,True,True
1109,Patterson Fire,Riverside,33,33.63,-117.06,2018-05-17 14:19:00+00:00,2018,1261,True,False
1110,Butte Fire,Sutter,51,39.19,-121.79,2018-07-31 17:34:00+00:00,2018,1200,False,False
1111,North Fire,Placer,31,39.27,-120.66,2018-09-03 16:38:00+00:00,2018,1120,False,True
1112,Front Fire,Santa Barbara,42,35.11,-120.09,2018-08-19 13:37:00+00:00,2018,1014,False,False
1113,Breckenridge Fire,Kern,15,35.39,-118.82,2018-07-27 16:12:00+00:00,2018,993,True,False
1114,Eel Fire,Mendocino,23,39.83,-123.08,2018-07-31 15:28:00+00:00,2018,972,False,False
1115,Stoney Fire,Butte,4,39.77,-121.77,2018-07-12 22:45:00+00:00,2018,962,True,True
1116,Dale Fire,Tehama,52,40.34,-121.94,2018-07-09 18:30:00+00:00,2018,856,True,False
1117,Irish Fire,Amador,3,38.43,-120.95,2018-07-06 14:42:00+00:00,2018,825,True,True
1118,Eighty Eight Fire,Yolo,57,38.6,-121.99,2018-07-18 14:24:00+00:00,2018,822,True,False
1119,Sunset Fire,Placer,31,38.82,-121.45,2018-08-01 13:11:00+00:00,2018,700,True,False
1120,River Fire,Tulare,54,35.79,-118.74,2018-08-15 17:14:00+00:00,2018,668,True,False
1121,Gulch Fire,Monterey,27,36.01,-120.82,2018-08-11 14:12:00+00:00,2018,650,True,False
1122,Tumbleweed Fire,Lassen,18,40.38,-120.36,2018-06-14 17:45:00+00:00,2018,646,False,False
1123,Grant Fire,Alameda,1,37.76,-121.61,2018-07-08 17:38:00+00:00,2018,640,True,True
1124,Tulloch Fire,Tuolumne,55,37.83,-120.62,2018-09-08 13:34:00+00:00,2018,573,True,False
1125,June Fire,Butte,4,39.37,-121.52,2018-10-30 14:46:00+00:00,2018,550,True,False
1126,Eastern Fire,San Benito,35,36.38,-120.9,2018-06-04 17:30:00+00:00,2018,513,True,True
1127,West Fire,San Diego,37,32.83,-116.73,2018-07-06 23:39:00+00:00,2018,504,True,True
1128,Grant Fire,Alameda,1,37.75,-121.58,2018-05-30 13:21:00+00:00,2018,484,True,False
1129,Hyatt Fire,Lassen,18,40.32,-120.45,2018-06-27 15:09:00+00:00,2018,441,True,False
1130,Metz Fire,Monterey,27,36.36,-121.16,2018-09-13 15:37:00+00:00,2018,400,True,False
1131,San Ardo,Monterey,27,35.96,-120.86,2018-06-26 07:11:00+00:00,2018,375,True,False
1132,Call Fire,Kern,15,35.52,-118.65,2018-08-18 15:17:00+00:00,2018,367,False,False
1133,Pasqual Fire,San Diego,37,33.08,-116.92,2018-07-27 13:28:00+00:00,2018,365,True,True
1134,Oak Fire,Madera,20,37.39,-119.69,2018-09-22 15:44:00+00:00,2018,360,True,True
1135,Shippee Fire,Butte,4,39.6,-121.78,2018-06-26 12:56:00+00:00,2018,347,True,False
1136,Owens Fire,Inyo,14,37.74,-118.97,2018-07-31 15:07:00+00:00,2018,338,False,False
1137,Bascom Fire,Shasta,45,40.53,-122.17,2018-06-23 12:54:00+00:00,2018,328,True,False
1138,Country Fire,Santa Clara,43,37.45,-121.89,2018-07-22 13:06:00+00:00,2018,320,True,True
1139,Shingle Fire,El Dorado,9,38.54,-121.06,2018-07-04 17:09:00+00:00,2018,316,True,False
1140,Flat Fire,Trinity,53,40.6,-122.91,2018-06-28 18:01:00+00:00,2018,300,True,True
1141,ONeals Fire,Madera,20,37.1,-119.62,2018-06-04 17:44:00+00:00,2018,300,True,False
1142,Alpha Fire,San Diego,37,33.39,-117.5,2018-05-04 11:44:00+00:00,2018,300,False,False
